46
$GNTXT,01,01,02,PROTVER=18.00*11
$GNTXT,01,01,02,GPS;GLO;GAL;BDS*77
$GNTXT,01,01,02,SBAS;IMES;QZSS*49
$GNTXT,01,01,02,GNSS OTP=GPS;GLO*37
$GNTXT,01,01,02,LLC=FFFFFFFF-FFFFFFED-FFFFFFFF-FFFFFFFF-FFFFFF49*21
$GNTXT,01,01,02,ANTSUPERV=AC *00
$GNTXT,01,01,02,ANTSTATUS=DONTKNOW*2D
$GNTXT,01,01,02,PF=3FF*4B
$GNRMC,022723.03,V,,,,,,,140621,,,N*66
$GNVTG,,,,,,,,,N*2E
$GNGGA,022723.03,,,,,0,00,99.99,,,,,,*7D
$GNGSA,A,1,,,,,,,,,,,,,99.99,99.99,99.99*2E
$GNGSA,A,1,,,,,,,,,,,,,99.99,99.99,99.99*2E
$GPGSV,3,1,09,08,40,287,,10,78,028,,15,03,044,,18,22,125,*7F
$GPGSV,3,2,09,21,18,306,,23,45,069,,24,22,067,,27,46,239,*79
$GPGSV,3,3,09,32,51,185,*49
$GLGSV,3,1,09,70,42,042,,71,79,267,,72,29,232,,78,02,340,*65
$GLGSV,3,2,09,79,10,026,,80,03,078,,85,34,157,,86,82,221,*6E
$GLGSV,3,3,09,87,23,326,*55
$GNGLL,,,,,022723.03,V,N*51
$GNTXT,01,01,02,ANTSTATUS=INIT*3B
$GNRMC,022724.00,V,,,,,,,140621,,,N*62
$GNVTG,,,,,,,,,N*2E
$GNGGA,022724.00,,,,,0,05,2.11,,,,,,*4E
$GNGSA,A,1,10,27,,,,,,,,,,,2.33,2.11,0.98*1B
$GNGSA,A,1,71,72,87,,,,,,,,,,2.33,2.11,0.98*13
$GPGSV,3,1,09,08,40,287,24,10,78,028,36,15,03,044,,18,22,125,*7C
$GPGSV,3,2,09,21,18,306,,23,45,069,26,24,22,067,,27,46,239,31*7F
$GPGSV,3,3,09,32,51,185,*49
$GLGSV,3,1,09,70,42,042,,71,79,267,36,72,29,232,34,78,02,340,*67
$GLGSV,3,2,09,79,10,026,,80,03,078,,85,34,157,,86,82,221,22*6E
$GLGSV,3,3,09,87,23,326,29*5E
$GNGLL,,,,,022724.00,V,N*55
$GNTXT,01,01,02,ANTSTATUS=OK*25
$GNRMC,022725.00,V,,,,,,,140621,,,N*63
$GNVTG,,,,,,,,,N*2E
$GNGGA,022725.00,,,,,0,06,1.58,,,,,,*42
$GNGSA,A,1,10,27,23,,,,,,,,,,2.71,1.58,2.21*12
$GNGSA,A,1,71,72,87,,,,,,,,,,2.71,1.58,2.21*1B
$GPGSV,3,1,09,08,40,287,23,10,78,028,36,15,03,044,,18,22,125,*7B
$GPGSV,3,2,09,21,18,306,,23,45,069,25,24,22,067,,27,46,239,31*7C
$GPGSV,3,3,09,32,51,185,*49
$GLGSV,3,1,09,70,42,042,,71,79,267,36,72,29,232,34,78,02,340,*67
$GLGSV,3,2,09,79,10,026,,80,03,078,,85,34,157,,86,82,221,22*6E
$GLGSV,3,3,09,87,23,326,29*5E
$GNGLL,,,,,022725.00,V,N*54
$GNRMC,022726.00,A,4739.43406,N,12219.20297,W,0.675,,140621,,,A*70
$GNVTG,,T,,M,0.675,N,1.250,K,A*3F
$GNGGA,022726.00,4739.43406,N,12219.20297,W,1,06,1.58,27.2,M,-18.8,M,,*49
$GNGSA,A,3,10,27,23,,,,,,,,,,2.71,1.58,2.21*10
$GNGSA,A,3,71,72,87,,,,,,,,,,2.71,1.58,2.21*19
$GPGSV,3,1,09,08,40,287,22,10,78,028,35,15,03,044,,18,22,125,*79
$GPGSV,3,2,09,21,18,306,,23,45,069,25,24,22,067,,27,46,239,31*7C
$GPGSV,3,3,09,32,51,185,26*4D
$GLGSV,3,1,09,70,42,042,,71,79,267,36,72,29,232,33,78,02,340,*60
$GLGSV,3,2,09,79,10,026,,80,03,078,,85,34,157,,86,82,221,22*6E
$GLGSV,3,3,09,87,23,326,29*5E
$GNGLL,4739.43406,N,12219.20297,W,022726.00,A,A*6D
$GNRMC,022727.00,A,4739.43603,N,12219.20790,W,0.193,,140621,,,A*7B
$GNVTG,,T,,M,0.193,N,0.357,K,A*37
$GNGGA,022727.00,4739.43603,N,12219.20790,W,1,09,1.25,34.6,M,-18.8,M,,*4E
$GNGSA,A,3,10,32,27,23,08,,,,,,,,2.31,1.25,1.94*1A
$GNGSA,A,3,86,71,72,87,,,,,,,,,2.31,1.25,1.94*14
$GPGSV,3,1,09,08,40,287,21,10,78,028,35,15,03,044,,18,22,125,*7A
$GPGSV,3,2,09,21,18,306,,23,45,069,25,24,22,067,,27,46,239,31*7C
$GPGSV,3,3,09,32,51,185,24*4F
$GLGSV,3,1,09,70,42,042,,71,79,267,36,72,29,232,34,78,02,340,*67
$GLGSV,3,2,09,79,10,026,,80,03,078,,85,34,157,,86,82,221,23*6F
$GLGSV,3,3,09,87,23,326,29*5E
$GNGLL,4739.43603,N,12219.20790,W,022727.00,A,A*69
$GNRMC,022728.00,A,4739.43629,N,12219.20792,W,0.265,,140621,,,A*74
$GNVTG,,T,,M,0.265,N,0.490,K,A*31
$GNGGA,022728.00,4739.43629,N,12219.20792,W,1,09,1.25,34.7,M,-18.8,M,,*4A
$GNGSA,A,3,10,32,27,23,08,,,,,,,,2.31,1.25,1.94*1A
$GNGSA,A,3,86,71,72,87,,,,,,,,,2.31,1.25,1.94*14
$GPGSV,3,1,09,08,40,287,21,10,78,028,35,15,03,044,,18,22,125,*7A
$GPGSV,3,2,09,21,18,306,,23,45,069,25,24,22,067,,27,46,239,30*7D
$GPGSV,3,3,09,32,51,185,24*4F
$GLGSV,3,1,09,70,42,042,,71,79,267,36,72,29,232,34,78,02,340,*67
$GLGSV,3,2,09,79,10,026,,80,03,078,,85,34,157,,86,82,221,23*6F
$GLGSV,3,3,09,87,23,326,30*56
$GNGLL,4739.43629,N,12219.20792,W,022728.00,A,A*6C
$GNRMC,022729.00,A,4739.43636,N,12219.20832,W,0.147,,140621,,,A*7D
$GNVTG,,T,,M,0.147,N,0.272,K,A*38
$GNGGA,022729.00,4739.43636,N,12219.20832,W,1,09,1.25,34.7,M,-18.8,M,,*40
$GNGSA,A,3,10,32,27,23,08,,,,,,,,2.31,1.25,1.94*1A
$GNGSA,A,3,86,71,72,87,,,,,,,,,2.31,1.25,1.94*14
$GPGSV,3,1,09,08,40,287,21,10,78,028,35,15,03,044,,18,22,125,*7A
$GPGSV,3,2,09,21,18,306,,23,45,069,25,24,22,067,,27,46,239,31*7C
$GPGSV,3,3,09,32,51,185,22*49
$GLGSV,3,1,09,70,42,042,,71,79,267,37,72,29,232,34,78,02,340,*66
$GLGSV,3,2,09,79,10,026,,80,03,078,,85,34,157,,86,82,221,23*6F
$GLGSV,3,3,09,87,23,326,30*56
$GNGLL,4739.43636,N,12219.20832,W,022729.00,A,A*66
$GNRMC,022730.00,A,4739.43723,N,12219.20902,W,0.045,,140621,,,A*71
$GNVTG,,T,,M,0.045,N,0.084,K,A*30
$GNGGA,022730.00,4739.43723,N,12219.20902,W,1,09,1.25,34.3,M,-18.8,M,,*4B
$GNGSA,A,3,10,32,27,23,08,,,,,,,,2.31,1.25,1.94*1A
$GNGSA,A,3,86,71,72,87,,,,,,,,,2.31,1.25,1.94*14
$GPGSV,3,1,09,08,40,287,20,10,78,028,35,15,03,044,,18,22,125,*7B
$GPGSV,3,2,09,21,18,306,,23,45,069,26,24,22,067,,27,46,239,30*7E
$GPGSV,3,3,09,32,51,185,23*48
$GLGSV,3,1,09,70,42,042,,71,79,267,37,72,29,232,34,78,02,340,*66
$GLGSV,3,2,09,79,10,026,,80,03,078,,85,34,157,,86,82,221,23*6F
$GLGSV,3,3,09,87,23,326,30*56
$GNGLL,4739.43723,N,12219.20902,W,022730.00,A,A*69
$GNRMC,022731.00,A,4739.43775,N,12219.20936,W,0.096,,140621,,,A*7A
$GNVTG,,T,,M,0.096,N,0.178,K,A*3C
$GNGGA,022731.00,4739.43775,N,12219.20936,W,1,09,1.25,34.4,M,-18.8,M,,*49
$GNGSA,A,3,10,32,27,23,08,,,,,,,,2.31,1.25,1.94*1A
$GNGSA,A,3,86,71,72,87,,,,,,,,,2.31,1.25,1.94*14
$GPGSV,3,1,09,08,40,287,20,10,78,028,35,15,03,044,,18,22,125,*7B
$GPGSV,3,2,09,21,18,306,,23,45,069,26,24,22,067,,27,46,239,31*7F
$GPGSV,3,3,09,32,51,185,23*48
$GLGSV,3,1,09,70,42,042,,71,79,267,34,72,29,232,34,78,02,340,*65
$GLGSV,3,2,09,79,10,026,,80,03,078,,85,34,157,,86,82,221,23*6F
$GLGSV,3,3,09,87,23,326,30*56
$GNGLL,4739.43775,N,12219.20936,W,022731.00,A,A*6C
$GNRMC,022732.00,A,4739.43812,N,12219.20930,W,0.403,,140621,,,A*79
$GNVTG,,T,,M,0.403,N,0.747,K,A*3E
$GNGGA,022732.00,4739.43812,N,12219.20930,W,1,09,1.25,34.0,M,-18.8,M,,*46
$GNGSA,A,3,10,32,27,23,08,,,,,,,,2.31,1.25,1.94*1A
$GNGSA,A,3,86,71,72,87,,,,,,,,,2.31,1.25,1.94*14
$GPGSV,3,1,09,08,40,287,21,10,78,028,35,15,03,044,,18,22,125,*7A
$GPGSV,3,2,09,21,18,306,03,23,45,069,26,24,22,067,,27,46,239,32*7F
$GPGSV,3,3,09,32,51,185,23*48
$GLGSV,3,1,09,70,42,042,,71,79,267,37,72,29,232,34,78,02,340,*66
$GLGSV,3,2,09,79,10,026,,80,03,078,,85,34,157,,86,82,221,23*6F
$GLGSV,3,3,09,87,23,326,30*56
$GNGLL,4739.43812,N,12219.20930,W,022732.00,A,A*67
$GNRMC,022733.00,A,4739.43831,N,12219.20946,W,0.203,,140621,,,A*7E
$GNVTG,,T,,M,0.203,N,0.376,K,A*3E
$GNGGA,022733.00,4739.43831,N,12219.20946,W,1,09,1.25,34.1,M,-18.8,M,,*46
$GNGSA,A,3,10,32,27,23,08,,,,,,,,2.31,1.25,1.94*1A
$GNGSA,A,3,86,71,72,87,,,,,,,,,2.31,1.25,1.94*14
$GPGSV,3,1,09,08,40,287,21,10,78,028,35,15,03,044,,18,22,125,*7A
$GPGSV,3,2,09,21,18,306,06,23,45,069,25,24,22,067,,27,46,239,31*7A
$GPGSV,3,3,09,32,51,185,22*49
$GLGSV,3,1,09,70,42,042,,71,79,267,37,72,29,232,34,78,02,340,*66
$GLGSV,3,2,09,79,10,026,,80,03,078,,85,34,157,,86,82,221,23*6F
$GLGSV,3,3,09,87,23,326,30*56
$GNGLL,4739.43831,N,12219.20946,W,022733.00,A,A*66
$GNRMC,022734.00,A,4739.43854,N,12219.20972,W,0.042,,140621,,,A*7A
$GNVTG,,T,,M,0.042,N,0.078,K,A*34
$GNGGA,022734.00,4739.43854,N,12219.20972,W,1,09,1.25,34.4,M,-18.8,M,,*40
$GNGSA,A,3,10,32,27,23,08,,,,,,,,2.31,1.25,1.94*1A
$GNGSA,A,3,86,71,72,87,,,,,,,,,2.31,1.25,1.94*14
$GPGSV,3,1,09,08,40,287,21,10,78,028,35,15,03,044,,18,22,125,*7A
$GPGSV,3,2,09,21,18,306,08,23,45,069,25,24,22,067,,27,46,239,31*74
$GPGSV,3,3,09,32,51,185,22*49
$GLGSV,3,1,09,70,42,042,,71,79,267,37,72,29,232,34,78,02,340,*66
$GLGSV,3,2,09,79,10,026,,80,03,078,,85,34,157,,86,82,221,23*6F
$GLGSV,3,3,09,87,23,326,30*56
$GNGLL,4739.43854,N,12219.20972,W,022734.00,A,A*65
$GNRMC,022735.00,A,4739.43900,N,12219.21051,W,0.204,,140621,,,A*72
$GNVTG,,T,,M,0.204,N,0.377,K,A*38
$GNGGA,022735.00,4739.43900,N,12219.21051,W,1,09,1.25,34.9,M,-18.8,M,,*45
$GNGSA,A,3,10,32,27,23,08,,,,,,,,2.31,1.25,1.94*1A
$GNGSA,A,3,86,71,72,87,,,,,,,,,2.31,1.25,1.94*14
$GPGSV,3,1,09,08,40,287,21,10,78,028,35,15,03,044,,18,22,125,*7A
$GPGSV,3,2,09,21,18,306,08,23,45,069,26,24,22,067,,27,46,239,31*77
$GPGSV,3,3,09,32,51,185,23*48
$GLGSV,3,1,09,70,42,042,,71,79,267,35,72,29,232,34,78,02,340,*64
$GLGSV,3,2,09,79,10,026,,80,03,078,,85,34,157,,86,82,221,24*68
$GLGSV,3,3,09,87,23,326,30*56
$GNGLL,4739.43900,N,12219.21051,W,022735.00,A,A*6D
$GNRMC,022736.00,A,4739.43931,N,12219.21095,W,0.122,,140621,,,A*7C
$GNVTG,,T,,M,0.122,N,0.226,K,A*3A
$GNGGA,022736.00,4739.43931,N,12219.21095,W,1,09,1.25,35.2,M,-18.8,M,,*46
$GNGSA,A,3,10,32,27,23,08,,,,,,,,2.31,1.25,1.94*1A
$GNGSA,A,3,86,71,72,87,,,,,,,,,2.31,1.25,1.94*14
$GPGSV,3,1,09,08,40,287,21,10,78,028,35,15,03,044,,18,22,125,*7A
$GPGSV,3,2,09,21,18,306,09,23,45,069,26,24,22,067,,27,46,239,31*76
$GPGSV,3,3,09,32,51,185,23*48
$GLGSV,3,1,09,70,42,042,,71,79,267,37,72,29,232,35,78,02,340,*67
$GLGSV,3,2,09,79,10,026,,80,03,078,,85,34,157,,86,82,221,24*68
$GLGSV,3,3,09,87,23,326,30*56
$GNGLL,4739.43931,N,12219.21095,W,022736.00,A,A*64
$GNRMC,022737.00,A,4739.43963,N,12219.21120,W,0.145,,140621,,,A*74
$GNVTG,,T,,M,0.145,N,0.269,K,A*30
$GNGGA,022737.00,4739.43963,N,12219.21120,W,1,10,1.22,35.2,M,-18.8,M,,*40
$GNGSA,A,3,10,32,27,23,08,21,,,,,,,2.21,1.22,1.84*1E
$GNGSA,A,3,86,71,72,87,,,,,,,,,2.21,1.22,1.84*13
$GPGSV,3,1,09,08,40,287,21,10,78,028,35,15,03,044,,18,22,125,*7A
$GPGSV,3,2,09,21,18,306,12,23,45,069,25,24,22,067,,27,46,239,31*7F
$GPGSV,3,3,09,32,51,185,22*49
$GLGSV,3,1,09,70,42,042,,71,79,267,37,72,29,232,35,78,02,340,*67
$GLGSV,3,2,09,79,10,026,,80,03,078,,85,34,157,,86,82,221,24*68
$GLGSV,3,3,09,87,23,326,30*56
$GNGLL,4739.43963,N,12219.21120,W,022737.00,A,A*6D
$GNRMC,022738.00,A,4739.43979,N,12219.21161,W,0.133,,140621,,,A*74
$GNVTG,,T,,M,0.133,N,0.247,K,A*3D
$GNGGA,022738.00,4739.43979,N,12219.21161,W,1,10,1.22,35.6,M,-18.8,M,,*45
$GNGSA,A,3,10,32,27,23,08,21,,,,,,,2.21,1.22,1.84*1E
$GNGSA,A,3,86,71,72,87,,,,,,,,,2.21,1.22,1.84*13
$GPGSV,3,1,09,08,40,287,21,10,78,028,38,15,03,044,,18,22,125,*77
$GPGSV,3,2,09,21,18,306,14,23,45,069,26,24,22,067,,27,46,239,34*7F
$GPGSV,3,3,09,32,51,185,22*49
$GLGSV,3,1,09,70,42,042,,71,79,267,37,72,29,232,34,78,02,340,*66
$GLGSV,3,2,09,79,10,026,,80,03,078,,85,34,157,,86,82,221,24*68
$GLGSV,3,3,09,87,23,326,31*57
$GNGLL,4739.43979,N,12219.21161,W,022738.00,A,A*6C
$GNRMC,022739.00,A,4739.43997,N,12219.21193,W,0.066,,140621,,,A*79
$GNVTG,,T,,M,0.066,N,0.122,K,A*3C
$GNGGA,022739.00,4739.43997,N,12219.21193,W,1,10,1.22,35.8,M,-18.8,M,,*47
$GNGSA,A,3,10,32,27,23,08,21,,,,,,,2.21,1.22,1.84*1E
$GNGSA,A,3,86,71,72,87,,,,,,,,,2.21,1.22,1.84*13
$GPGSV,3,1,09,08,40,287,21,10,78,028,36,15,03,044,,18,22,125,*79
$GPGSV,3,2,09,21,18,306,15,23,45,069,27,24,22,067,,27,46,239,31*7A
$GPGSV,3,3,09,32,51,185,23*48
$GLGSV,3,1,09,70,42,042,,71,79,267,37,72,29,232,35,78,02,340,*67
$GLGSV,3,2,09,79,10,026,,80,03,078,,85,34,157,,86,82,221,24*68
$GLGSV,3,3,09,87,23,326,31*57
$GNGLL,4739.43997,N,12219.21193,W,022739.00,A,A*60
$GNRMC,022740.00,A,4739.44005,N,12219.21220,W,0.174,,140621,,,A*7B
$GNVTG,,T,,M,0.174,N,0.322,K,A*3C
$GNGGA,022740.00,4739.44005,N,12219.21220,W,1,10,1.22,36.0,M,-18.8,M,,*4C
$GNGSA,A,3,10,32,27,23,08,21,,,,,,,2.21,1.22,1.84*1E
$GNGSA,A,3,86,71,72,87,,,,,,,,,2.21,1.22,1.84*13
$GPGSV,3,1,09,08,40,287,23,10,78,028,35,15,03,044,,18,22,125,*78
$GPGSV,3,2,09,21,18,306,15,23,45,069,27,24,22,067,,27,46,239,31*7A
$GPGSV,3,3,09,32,51,185,23*48
$GLGSV,3,1,09,70,42,042,,71,79,267,37,72,29,232,36,78,02,340,*64
$GLGSV,3,2,09,79,10,026,,80,03,078,,85,34,157,,86,82,221,24*68
$GLGSV,3,3,09,87,23,326,30*56
$GNGLL,4739.44005,N,12219.21220,W,022740.00,A,A*60
$GNRMC,022741.00,A,4739.44023,N,12219.21250,W,0.172,,140621,,,A*7F
$GNVTG,,T,,M,0.172,N,0.319,K,A*32
$GNGGA,022741.00,4739.44023,N,12219.21250,W,1,10,1.22,36.3,M,-18.8,M,,*4D
$GNGSA,A,3,10,32,27,23,08,21,,,,,,,2.21,1.22,1.84*1E
$GNGSA,A,3,86,71,72,87,,,,,,,,,2.21,1.22,1.84*13
$GPGSV,3,1,09,08,40,287,24,10,78,028,37,15,03,044,,18,22,125,*7D
$GPGSV,3,2,09,21,18,306,14,23,45,069,27,24,22,067,,27,46,239,27*7C
$GPGSV,3,3,09,32,51,185,22*49
$GLGSV,3,1,09,70,42,042,,71,79,267,37,72,29,232,37,78,02,340,*65
$GLGSV,3,2,09,79,10,026,,80,03,078,,85,34,157,,86,82,221,23*6F
$GLGSV,3,3,09,87,23,326,30*56
$GNGLL,4739.44023,N,12219.21250,W,022741.00,A,A*62
$GNRMC,022742.00,A,4739.44033,N,12219.21272,W,0.059,,140621,,,A*75
$GNVTG,,T,,M,0.059,N,0.110,K,A*31
$GNGGA,022742.00,4739.44033,N,12219.21272,W,1,10,1.22,36.4,M,-18.8,M,,*48
$GNGSA,A,3,10,32,27,23,08,21,,,,,,,2.21,1.22,1.84*1E
$GNGSA,A,3,86,71,72,87,,,,,,,,,2.21,1.22,1.84*13
$GPGSV,3,1,09,08,40,287,23,10,78,028,37,15,03,044,,18,22,125,*7A
$GPGSV,3,2,09,21,18,306,14,23,45,069,27,24,22,067,,27,46,239,33*79
$GPGSV,3,3,09,32,51,185,22*49
$GLGSV,3,1,09,70,42,042,,71,79,267,37,72,29,232,34,78,02,340,*66
$GLGSV,3,2,09,79,10,026,,80,03,078,,85,34,157,,86,82,221,23*6F
$GLGSV,3,3,09,87,23,326,31*57
$GNGLL,4739.44033,N,12219.21272,W,022742.00,A,A*60
$GNRMC,022743.00,A,4739.44047,N,12219.21290,W,0.069,,140621,,,A*78
$GNVTG,,T,,M,0.069,N,0.127,K,A*36
$GNGGA,022743.00,4739.44047,N,12219.21290,W,1,10,1.22,36.6,M,-18.8,M,,*44
$GNGSA,A,3,10,32,27,23,08,21,,,,,,,2.21,1.22,1.84*1E
$GNGSA,A,3,86,71,72,87,,,,,,,,,2.21,1.22,1.84*13
$GPGSV,3,1,09,08,40,287,22,10,78,028,36,15,03,044,,18,22,125,*7A
$GPGSV,3,2,09,21,18,306,16,23,45,069,26,24,22,067,05,27,46,239,33*7F
$GPGSV,3,3,09,32,51,185,24*4F
$GLGSV,3,1,09,70,42,042,,71,79,267,37,72,29,232,36,78,02,340,*64
$GLGSV,3,2,09,79,10,026,,80,03,078,,85,34,157,,86,82,221,23*6F
$GLGSV,3,3,09,87,23,326,31*57
$GNGLL,4739.44047,N,12219.21290,W,022743.00,A,A*6E
$GNRMC,022744.00,A,4739.44062,N,12219.21303,W,0.180,,140621,,,A*75
$GNVTG,,T,,M,0.180,N,0.333,K,A*37
$GNGGA,022744.00,4739.44062,N,12219.21303,W,1,10,1.22,36.6,M,-18.8,M,,*4F
$GNGSA,A,3,10,32,27,23,08,21,,,,,,,2.21,1.22,1.84*1E
$GNGSA,A,3,86,71,72,87,,,,,,,,,2.21,1.22,1.84*13
$GPGSV,3,1,09,08,40,287,21,10,78,028,36,15,03,044,,18,22,125,*79
$GPGSV,3,2,09,21,18,306,17,23,45,069,26,24,22,067,06,27,46,239,30*7E
$GPGSV,3,3,09,32,51,185,25*4E
$GLGSV,3,1,09,70,42,042,,71,79,267,37,72,29,232,36,78,02,340,*64
$GLGSV,3,2,09,79,10,026,,80,03,078,,85,34,157,,86,82,221,23*6F
$GLGSV,3,3,09,87,23,326,30*56
$GNGLL,4739.44062,N,12219.21303,W,022744.00,A,A*65
$GNRMC,022745.00,A,4739.44075,N,12219.21323,W,0.198,,140621,,,A*79
$GNVTG,,T,,M,0.198,N,0.366,K,A*3E
$GNGGA,022745.00,4739.44075,N,12219.21323,W,1,10,1.22,36.6,M,-18.8,M,,*4A
$GNGSA,A,3,10,32,27,23,08,21,,,,,,,2.21,1.22,1.84*1E
$GNGSA,A,3,86,71,72,87,,,,,,,,,2.21,1.22,1.84*13
$GPGSV,3,1,09,08,40,287,21,10,78,028,36,15,03,044,,18,22,125,*79
$GPGSV,3,2,09,21,18,306,17,23,45,069,27,24,22,067,08,27,46,239,31*70
$GPGSV,3,3,09,32,51,185,25*4E
$GLGSV,3,1,09,70,42,042,,71,79,267,37,72,29,232,36,78,02,340,*64
$GLGSV,3,2,09,79,10,026,,80,03,078,,85,34,157,,86,82,221,23*6F
$GLGSV,3,3,09,87,23,326,31*57
$GNGLL,4739.44075,N,12219.21323,W,022745.00,A,A*60
$GNRMC,022746.00,A,4739.44091,N,12219.21343,W,0.143,,140621,,,A*70
$GNVTG,,T,,M,0.143,N,0.265,K,A*3A
$GNGGA,022746.00,4739.44091,N,12219.21343,W,1,10,1.22,36.2,M,-18.8,M,,*41
$GNGSA,A,3,10,32,27,23,08,21,,,,,,,2.21,1.22,1.84*1E
$GNGSA,A,3,86,71,72,87,,,,,,,,,2.21,1.22,1.84*13
$GPGSV,3,1,09,08,40,287,20,10,78,028,37,15,03,044,,18,22,125,*79
$GPGSV,3,2,09,21,18,306,17,23,45,069,26,24,22,067,08,27,46,239,32*72
$GPGSV,3,3,09,32,51,185,25*4E
$GLGSV,3,1,09,70,42,042,,71,79,267,38,72,29,232,36,78,02,340,*6B
$GLGSV,3,2,09,79,10,026,,80,03,078,,85,34,157,,86,82,221,23*6F
$GLGSV,3,3,09,87,23,326,31*57
$GNGLL,4739.44091,N,12219.21343,W,022746.00,A,A*6F
$GNRMC,022747.00,A,4739.44105,N,12219.21364,W,0.042,,140621,,,A*78
$GNVTG,,T,,M,0.042,N,0.078,K,A*34
$GNGGA,022747.00,4739.44105,N,12219.21364,W,1,10,1.22,36.1,M,-18.8,M,,*4A
$GNGSA,A,3,10,32,27,23,08,21,,,,,,,2.21,1.22,1.84*1E
$GNGSA,A,3,86,71,72,87,,,,,,,,,2.21,1.22,1.84*13
$GPGSV,3,1,09,08,40,287,20,10,78,028,37,15,03,044,,18,22,125,*79
$GPGSV,3,2,09,21,18,306,15,23,45,069,27,24,22,067,08,27,46,239,32*71
$GPGSV,3,3,09,32,51,185,25*4E
$GLGSV,3,1,09,70,42,042,,71,79,267,38,72,29,232,36,78,02,340,*6B
$GLGSV,3,2,09,79,10,026,,80,03,078,,85,34,157,,86,82,221,24*68
$GLGSV,3,3,09,87,23,326,30*56
$GNGLL,4739.44105,N,12219.21364,W,022747.00,A,A*67
$GNRMC,022748.00,A,4739.44113,N,12219.21373,W,0.246,,140621,,,A*70
$GNVTG,,T,,M,0.246,N,0.455,K,A*39
$GNGGA,022748.00,4739.44113,N,12219.21373,W,1,10,1.22,36.0,M,-18.8,M,,*45
$GNGSA,A,3,10,32,27,23,08,21,,,,,,,2.21,1.22,1.84*1E
$GNGSA,A,3,86,71,72,87,,,,,,,,,2.21,1.22,1.84*13
$GPGSV,3,1,09,08,40,287,20,10,78,028,37,15,03,044,,18,22,125,*79
$GPGSV,3,2,09,21,18,306,14,23,45,069,27,24,22,067,08,27,46,239,29*7A
$GPGSV,3,3,09,32,51,185,24*4F
$GLGSV,3,1,09,70,42,042,,71,79,267,37,72,29,232,37,78,02,340,*65
$GLGSV,3,2,09,79,10,026,,80,03,078,,85,34,157,,86,82,221,24*68
$GLGSV,3,3,09,87,23,326,29*5E
$GNGLL,4739.44113,N,12219.21373,W,022748.00,A,A*69
$GNRMC,022749.00,A,4739.44123,N,12219.21377,W,0.068,,140621,,,A*78
$GNVTG,,T,,M,0.068,N,0.126,K,A*36
$GNGGA,022749.00,4739.44123,N,12219.21377,W,1,10,1.22,35.9,M,-18.8,M,,*49
$GNGSA,A,3,10,32,27,23,08,21,,,,,,,2.21,1.22,1.84*1E
$GNGSA,A,3,86,71,72,87,,,,,,,,,2.21,1.22,1.84*13
$GPGSV,3,1,09,08,40,287,20,10,78,028,36,15,03,044,,18,22,125,*78
$GPGSV,3,2,09,21,18,306,14,23,45,069,27,24,22,067,08,27,46,239,29*7A
$GPGSV,3,3,09,32,51,185,23*48
$GLGSV,3,1,09,70,42,042,,71,79,267,38,72,29,232,37,78,02,340,*6A
$GLGSV,3,2,09,79,10,026,,80,03,078,,85,34,157,,86,82,221,24*68
$GLGSV,3,3,09,87,23,326,29*5E
$GNGLL,4739.44123,N,12219.21377,W,022749.00,A,A*6F
$GNRMC,022750.00,A,4739.44124,N,12219.21370,W,0.192,,140621,,,A*74
$GNVTG,,T,,M,0.192,N,0.356,K,A*37
$GNGGA,022750.00,4739.44124,N,12219.21370,W,1,10,1.22,35.6,M,-18.8,M,,*4E
$GNGSA,A,3,10,32,27,23,08,21,,,,,,,2.21,1.22,1.84*1E
$GNGSA,A,3,86,71,72,87,,,,,,,,,2.21,1.22,1.84*13
$GPGSV,3,1,09,08,40,287,20,10,78,028,37,15,03,044,,18,22,125,*79
$GPGSV,3,2,09,21,18,306,14,23,45,069,26,24,22,067,10,27,46,239,31*7B
$GPGSV,3,3,09,32,51,185,23*48
$GLGSV,3,1,09,70,42,042,,71,79,267,38,72,29,232,37,78,02,340,*6A
$GLGSV,3,2,09,79,10,026,,80,03,078,,85,34,157,,86,82,221,24*68
$GLGSV,3,3,09,87,23,326,30*56
$GNGLL,4739.44124,N,12219.21370,W,022750.00,A,A*67
$GNRMC,022751.00,A,4739.44127,N,12219.21368,W,0.030,,140621,,,A*76
$GNVTG,,T,,M,0.030,N,0.055,K,A*3E
$GNGGA,022751.00,4739.44127,N,12219.21368,W,1,10,1.22,35.4,M,-18.8,M,,*47
$GNGSA,A,3,10,32,27,23,08,21,,,,,,,2.21,1.22,1.84*1E
$GNGSA,A,3,86,71,72,87,,,,,,,,,2.21,1.22,1.84*13
$GPGSV,3,1,09,08,40,287,19,10,78,028,37,15,03,044,,18,22,125,*73
$GPGSV,3,2,09,21,18,306,14,23,45,069,27,24,22,067,10,27,46,239,31*7A
$GPGSV,3,3,09,32,51,185,22*49
$GLGSV,3,1,09,70,42,042,,71,79,267,38,72,29,232,36,78,02,340,*6B
$GLGSV,3,2,09,79,10,026,,80,03,078,,85,34,157,18,86,82,221,24*61
$GLGSV,3,3,09,87,23,326,29*5E
$GNGLL,4739.44127,N,12219.21368,W,022751.00,A,A*6C
$GNRMC,022752.00,A,4739.44136,N,12219.21372,W,0.058,,140621,,,A*70
$GNVTG,,T,,M,0.058,N,0.108,K,A*39
$GNGGA,022752.00,4739.44136,N,12219.21372,W,1,10,1.22,35.2,M,-18.8,M,,*49
$GNGSA,A,3,10,32,27,23,08,21,,,,,,,2.21,1.22,1.84*1E
$GNGSA,A,3,86,71,72,87,,,,,,,,,2.21,1.22,1.84*13
$GPGSV,3,1,09,08,40,287,20,10,78,028,36,15,03,044,,18,22,125,*78
$GPGSV,3,2,09,21,18,306,15,23,45,069,26,24,22,067,10,27,46,239,30*7B
$GPGSV,3,3,09,32,51,185,23*48
$GLGSV,3,1,09,70,42,042,,71,79,267,36,72,29,232,36,78,02,340,*65
$GLGSV,3,2,09,79,10,026,,80,03,078,,85,34,157,17,86,82,221,25*6F
$GLGSV,3,3,09,87,23,326,29*5E
$GNGLL,4739.44136,N,12219.21372,W,022752.00,A,A*64
$GNRMC,022753.00,A,4739.44160,N,12219.21397,W,0.957,,140621,,,A*7F
$GNVTG,,T,,M,0.957,N,1.773,K,A*34
$GNGGA,022753.00,4739.44160,N,12219.21397,W,1,10,1.22,35.1,M,-18.8,M,,*43
$GNGSA,A,3,10,32,27,23,08,21,,,,,,,2.21,1.22,1.84*1E
$GNGSA,A,3,86,71,72,87,,,,,,,,,2.21,1.22,1.84*13
$GPGSV,3,1,09,08,40,287,29,10,78,028,38,15,03,044,,18,22,125,*7F
$GPGSV,3,2,09,21,18,306,15,23,45,069,28,24,22,067,10,27,46,239,30*75
$GPGSV,3,3,09,32,51,185,30*4A
$GLGSV,3,1,09,70,42,042,,71,79,267,34,72,29,232,27,78,02,340,*67
$GLGSV,3,2,09,79,10,026,,80,03,078,,85,34,157,15,86,82,221,25*6D
$GLGSV,3,3,09,87,23,326,21*56
$GNGLL,4739.44160,N,12219.21397,W,022753.00,A,A*6D
$GNRMC,022754.00,A,4739.44174,N,12219.21416,W,0.140,,140621,,,A*7D
$GNVTG,,T,,M,0.140,N,0.260,K,A*3C
$GNGGA,022754.00,4739.44174,N,12219.21416,W,1,10,1.22,35.2,M,-18.8,M,,*4C
$GNGSA,A,3,10,32,27,23,08,21,,,,,,,2.21,1.22,1.84*1E
$GNGSA,A,3,86,71,72,87,,,,,,,,,2.21,1.22,1.84*13
$GPGSV,3,1,09,08,40,287,29,10,78,028,33,15,03,044,,18,22,125,*74
$GPGSV,3,2,09,21,18,306,15,23,45,069,15,24,22,067,10,27,46,239,24*7E
$GPGSV,3,3,09,32,51,185,30*4A
$GLGSV,3,1,09,70,42,042,,71,79,267,30,72,29,232,28,78,02,340,*6C
$GLGSV,3,2,09,79,10,026,,80,03,078,,85,34,157,11,86,82,221,22*6E
$GLGSV,3,3,09,87,23,326,22*55
$GNGLL,4739.44174,N,12219.21416,W,022754.00,A,A*61
$GNRMC,022755.00,A,4739.44181,N,12219.21430,W,0.105,,140621,,,A*73
$GNVTG,,T,,M,0.105,N,0.195,K,A*34
$GNGGA,022755.00,4739.44181,N,12219.21430,W,1,10,1.22,35.3,M,-18.8,M,,*42
$GNGSA,A,3,10,32,27,23,08,21,,,,,,,2.21,1.22,1.84*1E
$GNGSA,A,3,86,71,72,87,,,,,,,,,2.21,1.22,1.84*13
$GPGSV,3,1,09,08,40,287,28,10,78,028,31,15,03,044,,18,22,125,*77
$GPGSV,3,2,09,21,18,306,14,23,45,069,15,24,22,067,10,27,46,239,26*7D
$GPGSV,3,3,09,32,51,185,30*4A
$GLGSV,3,1,09,70,42,042,,71,79,267,30,72,29,232,27,78,02,340,*63
$GLGSV,3,2,09,79,10,026,,80,03,078,,85,34,157,08,86,82,221,19*6E
$GLGSV,3,3,09,87,23,326,24*53
$GNGLL,4739.44181,N,12219.21430,W,022755.00,A,A*6E
$GNRMC,022756.00,A,4739.44191,N,12219.21440,W,0.295,,140621,,,A*7C
$GNVTG,,T,,M,0.295,N,0.546,K,A*34
$GNGGA,022756.00,4739.44191,N,12219.21440,W,1,10,1.22,35.2,M,-18.8,M,,*46
$GNGSA,A,3,10,32,27,23,08,21,,,,,,,2.21,1.22,1.84*1E
$GNGSA,A,3,86,71,72,87,,,,,,,,,2.21,1.22,1.84*13
$GPGSV,3,1,09,08,40,287,29,10,78,028,31,15,03,044,,18,22,125,*76
$GPGSV,3,2,09,21,18,306,12,23,45,069,17,24,22,067,11,27,46,239,27*79
$GPGSV,3,3,09,32,51,185,30*4A
$GLGSV,3,1,09,70,42,042,,71,79,267,30,72,29,232,28,78,02,340,*6C
$GLGSV,3,2,09,79,10,026,,80,03,078,,85,34,157,07,86,82,221,15*6D
$GLGSV,3,3,09,87,23,326,25*52
$GNGLL,4739.44191,N,12219.21440,W,022756.00,A,A*6B
$GNRMC,022757.00,A,4739.44204,N,12219.21451,W,0.196,,140621,,,A*72
$GNVTG,,T,,M,0.196,N,0.364,K,A*32
$GNGGA,022757.00,4739.44204,N,12219.21451,W,1,11,1.22,35.0,M,-18.8,M,,*4B
$GNGSA,A,3,10,32,27,23,08,24,21,,,,,,2.21,1.22,1.84*18
$GNGSA,A,3,86,71,72,87,,,,,,,,,2.21,1.22,1.84*13
$GPGSV,3,1,09,08,40,287,28,10,78,028,31,15,03,044,,18,22,125,*77
$GPGSV,3,2,09,21,18,306,11,23,45,069,19,24,22,067,11,27,46,239,27*74
$GPGSV,3,3,09,32,51,185,30*4A
$GLGSV,3,1,09,70,42,042,,71,79,267,30,72,29,232,28,78,02,340,*6C
$GLGSV,3,2,09,79,10,026,,80,03,078,,85,34,157,06,86,82,221,15*6C
$GLGSV,3,3,09,87,23,326,25*52
$GNGLL,4739.44204,N,12219.21451,W,022757.00,A,A*65
$GNRMC,022758.00,A,4739.44209,N,12219.21454,W,0.149,,140621,,,A*77
$GNVTG,,T,,M,0.149,N,0.276,K,A*32
$GNGGA,022758.00,4739.44209,N,12219.21454,W,1,11,1.00,34.7,M,-18.8,M,,*4A
$GNGSA,A,3,10,32,27,23,08,24,21,,,,,,1.75,1.00,1.43*11
$GNGSA,A,3,86,71,72,87,,,,,,,,,1.75,1.00,1.43*1A
$GPGSV,3,1,09,08,40,287,28,10,78,028,30,15,03,044,,18,22,125,*76
$GPGSV,3,2,09,21,18,306,13,23,45,069,19,24,22,067,11,27,46,239,27*76
$GPGSV,3,3,09,32,51,185,29*42
$GLGSV,3,1,09,70,42,042,,71,79,267,31,72,29,232,28,78,02,340,*6D
$GLGSV,3,2,09,79,10,026,,80,03,078,,85,34,157,07,86,82,221,15*6D
$GLGSV,3,3,09,87,23,326,26*51
$GNGLL,4739.44209,N,12219.21454,W,022758.00,A,A*62
$GNRMC,022759.00,A,4739.44211,N,12219.21450,W,0.101,,140621,,,A*77
$GNVTG,,T,,M,0.101,N,0.187,K,A*33
$GNGGA,022759.00,4739.44211,N,12219.21450,W,1,11,1.00,34.5,M,-18.8,M,,*44
$GNGSA,A,3,10,32,27,23,08,24,21,,,,,,1.75,1.00,1.43*11
$GNGSA,A,3,86,71,72,87,,,,,,,,,1.75,1.00,1.43*1A
$GPGSV,3,1,09,08,40,287,27,10,78,028,30,15,03,044,,18,22,125,*79
$GPGSV,3,2,09,21,18,306,13,23,45,069,19,24,22,067,11,27,46,239,27*76
$GPGSV,3,3,09,32,51,185,29*42
$GLGSV,3,1,09,70,42,042,,71,79,267,31,72,29,232,28,78,02,340,*6D
$GLGSV,3,2,09,79,10,026,,80,03,078,,85,34,157,07,86,82,221,16*6E
$GLGSV,3,3,09,87,23,326,26*51
$GNGLL,4739.44211,N,12219.21450,W,022759.00,A,A*6E
$GNRMC,022800.00,A,4739.44223,N,12219.21437,W,0.402,,140621,,,A*72
$GNVTG,,T,,M,0.402,N,0.744,K,A*3C
$GNGGA,022800.00,4739.44223,N,12219.21437,W,1,11,1.22,34.0,M,-18.8,M,,*42
$GNGSA,A,3,10,32,27,23,08,24,21,,,,,,2.21,1.22,1.84*18
$GNGSA,A,3,86,71,72,87,,,,,,,,,2.21,1.22,1.84*13
$GPGSV,3,1,09,08,40,287,28,10,78,028,33,15,03,044,,18,22,125,*75
$GPGSV,3,2,09,21,18,306,12,23,45,069,18,24,22,067,11,27,46,239,26*77
$GPGSV,3,3,09,32,51,185,29*42
$GLGSV,3,1,09,70,42,042,,71,79,267,31,72,29,232,28,78,02,340,*6D
$GLGSV,3,2,09,79,10,026,,80,03,078,,85,34,157,07,86,82,221,16*6E
$GLGSV,3,3,09,87,23,326,27*50
$GNGLL,4739.44223,N,12219.21437,W,022800.00,A,A*6D
$GNRMC,022801.00,A,4739.44223,N,12219.21431,W,0.182,,140621,,,A*78
$GNVTG,,T,,M,0.182,N,0.337,K,A*31
$GNGGA,022801.00,4739.44223,N,12219.21431,W,1,11,1.00,33.9,M,-18.8,M,,*4B
$GNGSA,A,3,10,32,27,23,08,24,21,,,,,,1.75,1.00,1.43*11
$GNGSA,A,3,86,71,72,87,,,,,,,,,1.75,1.00,1.43*1A
$GPGSV,3,1,09,08,40,287,29,10,78,028,32,15,03,044,,18,22,125,*75
$GPGSV,3,2,09,21,18,306,12,23,45,069,17,24,22,067,11,27,46,239,26*78
$GPGSV,3,3,09,32,51,185,29*42
$GLGSV,3,1,09,70,42,042,,71,79,267,30,72,29,232,28,78,02,340,*6C
$GLGSV,3,2,09,79,10,026,,80,03,078,,85,34,157,07,86,82,221,15*6D
$GLGSV,3,3,09,87,23,326,28*5F
$GNGLL,4739.44223,N,12219.21431,W,022801.00,A,A*6A
$GNRMC,022802.00,A,4739.44239,N,12219.21441,W,0.638,,140621,,,A*71
$GNVTG,,T,,M,0.638,N,1.181,K,A*39
$GNGGA,022802.00,4739.44239,N,12219.21441,W,1,11,1.00,33.9,M,-18.8,M,,*44
$GNGSA,A,3,10,32,27,23,08,24,21,,,,,,1.75,1.00,1.43*11
$GNGSA,A,3,86,71,72,87,,,,,,,,,1.75,1.00,1.43*1A
$GPGSV,3,1,09,08,40,287,30,10,78,028,31,15,03,044,,18,22,125,*7E
$GPGSV,3,2,09,21,18,306,14,23,45,069,17,24,22,067,09,27,46,239,26*77
$GPGSV,3,3,09,32,51,185,28*43
$GLGSV,3,1,09,70,42,042,,71,79,267,30,72,29,232,28,78,02,340,*6C
$GLGSV,3,2,09,79,10,026,,80,03,078,,85,34,157,07,86,82,221,13*6B
$GLGSV,3,3,09,87,23,326,15*51
$GNGLL,4739.44239,N,12219.21441,W,022802.00,A,A*65
$GNRMC,022803.00,A,4739.44258,N,12219.21434,W,0.770,,140621,,,A*78
$GNVTG,,T,,M,0.770,N,1.426,K,A*3C
$GNGGA,022803.00,4739.44258,N,12219.21434,W,1,10,1.22,33.8,M,-18.8,M,,*40
$GNGSA,A,3,10,32,27,23,08,21,,,,,,,2.21,1.22,1.84*1E
$GNGSA,A,3,86,71,72,87,,,,,,,,,2.21,1.22,1.84*13
$GPGSV,3,1,09,08,40,287,29,10,78,028,31,15,03,044,,18,22,125,*76
$GPGSV,3,2,09,21,18,306,18,23,45,069,18,24,22,067,,27,46,239,25*7E
$GPGSV,3,3,09,32,51,185,29*42
$GLGSV,3,1,09,70,42,042,,71,79,267,31,72,29,232,27,78,02,340,*62
$GLGSV,3,2,09,79,10,026,,80,03,078,,85,34,157,08,86,82,221,13*64
$GLGSV,3,3,09,87,23,326,26*51
$GNGLL,4739.44258,N,12219.21434,W,022803.00,A,A*61
$GNRMC,022804.00,A,4739.44277,N,12219.21420,W,0.536,,140621,,,A*77
$GNVTG,,T,,M,0.536,N,0.993,K,A*3E
$GNGGA,022804.00,4739.44277,N,12219.21420,W,1,10,1.22,33.7,M,-18.8,M,,*40
$GNGSA,A,3,10,32,27,23,08,21,,,,,,,2.21,1.22,1.85*1F
$GNGSA,A,3,86,71,72,87,,,,,,,,,2.21,1.22,1.85*12
$GPGSV,3,1,09,08,40,287,29,10,78,028,31,15,03,044,,18,22,125,*76
$GPGSV,3,2,09,21,18,306,19,23,45,069,19,24,22,067,,27,46,239,25*7E
$GPGSV,3,3,09,32,51,185,30*4A
$GLGSV,3,1,09,70,42,042,,71,79,267,31,72,29,232,28,78,02,340,*6D
$GLGSV,3,2,09,79,10,026,,80,03,078,,85,34,157,,86,82,221,16*69
$GLGSV,3,3,09,87,23,326,25*52
$GNGLL,4739.44277,N,12219.21420,W,022804.00,A,A*6E
$GNRMC,022805.00,A,4739.44299,N,12219.21399,W,0.703,,140621,,,A*77
$GNVTG,,T,,M,0.703,N,1.302,K,A*39
$GNGGA,022805.00,4739.44299,N,12219.21399,W,1,10,1.22,33.2,M,-18.8,M,,*41
$GNGSA,A,3,10,32,27,23,08,21,,,,,,,2.21,1.22,1.85*1F
$GNGSA,A,3,86,71,72,87,,,,,,,,,2.21,1.22,1.85*12
$GPGSV,3,1,09,08,40,287,21,10,78,028,30,15,03,044,,18,22,125,*7F
$GPGSV,3,2,09,21,18,306,19,23,45,069,18,24,22,067,,27,46,239,24*7E
$GPGSV,3,3,09,32,51,185,30*4A
$GLGSV,3,1,09,70,42,042,,71,79,267,32,72,29,232,32,78,02,340,*65
$GLGSV,3,2,09,79,10,026,20,80,03,078,,85,34,157,,86,82,221,16*6B
$GLGSV,3,3,09,87,23,326,23*54
$GNGLL,4739.44299,N,12219.21399,W,022805.00,A,A*6A
$GNRMC,022806.00,A,4739.44316,N,12219.21413,W,0.794,,140621,,,A*79
$GNVTG,,T,,M,0.794,N,1.470,K,A*35
$GNGGA,022806.00,4739.44316,N,12219.21413,W,1,10,1.22,33.1,M,-18.8,M,,*42
$GNGSA,A,3,10,32,27,23,08,21,,,,,,,2.21,1.22,1.85*1F
$GNGSA,A,3,86,71,72,87,,,,,,,,,2.21,1.22,1.85*12
$GPGSV,3,1,09,08,40,287,29,10,78,028,31,15,03,044,,18,22,125,*76
$GPGSV,3,2,09,21,18,306,18,23,45,069,18,24,22,067,,27,46,239,25*7E
$GPGSV,3,3,09,32,51,185,30*4A
$GLGSV,3,1,09,70,42,042,,71,79,267,32,72,29,232,33,78,02,340,*64
$GLGSV,3,2,09,79,10,026,19,80,03,078,,85,34,157,,86,82,221,16*61
$GLGSV,3,3,09,87,23,326,24*53
$GNGLL,4739.44316,N,12219.21413,W,022806.00,A,A*6A
$GNRMC,022807.00,A,4739.44330,N,12219.21441,W,0.612,,140621,,,A*74
$GNVTG,,T,,M,0.612,N,1.134,K,A*3F
$GNGGA,022807.00,4739.44330,N,12219.21441,W,1,10,1.22,33.4,M,-18.8,M,,*45
$GNGSA,A,3,10,32,27,23,08,21,,,,,,,2.21,1.22,1.85*1F
$GNGSA,A,3,86,71,72,87,,,,,,,,,2.21,1.22,1.85*12
$GPGSV,3,1,09,08,40,287,27,10,78,028,31,15,03,044,,18,22,125,*78
$GPGSV,3,2,09,21,18,306,18,23,45,069,17,24,22,067,,27,46,239,24*70
$GPGSV,3,3,09,32,51,185,29*42
$GLGSV,3,1,09,70,42,042,22,71,79,267,32,72,29,232,29,78,02,340,*6F
$GLGSV,3,2,09,79,10,026,17,80,03,078,,85,34,157,,86,82,221,16*6F
$GLGSV,3,3,09,87,23,326,29*5E
$GNGLL,4739.44330,N,12219.21441,W,022807.00,A,A*68
$GNRMC,022808.00,A,4739.44361,N,12219.21452,W,0.988,,140621,,,A*71
$GNVTG,,T,,M,0.988,N,1.831,K,A*3F
$GNGGA,022808.00,4739.44361,N,12219.21452,W,1,10,1.22,33.2,M,-18.8,M,,*4A
$GNGSA,A,3,10,32,27,23,08,21,,,,,,,2.21,1.22,1.85*1F
$GNGSA,A,3,86,71,72,87,,,,,,,,,2.21,1.22,1.85*12
$GPGSV,3,1,09,08,40,287,25,10,78,028,31,15,03,044,,18,22,125,*7A
$GPGSV,3,2,09,21,18,306,18,23,45,069,17,24,22,067,,27,46,239,25*71
$GPGSV,3,3,09,32,51,185,29*42
$GLGSV,3,1,09,70,42,042,20,71,79,267,31,72,29,232,28,78,02,340,*6F
$GLGSV,3,2,09,79,10,026,14,80,03,078,,85,34,157,,86,82,221,15*6F
$GLGSV,3,3,09,87,23,326,19*5D
$GNGLL,4739.44361,N,12219.21452,W,022808.00,A,A*61
$GNRMC,022809.00,A,4739.44379,N,12219.21434,W,0.511,,140621,,,A*75
$GNVTG,,T,,M,0.511,N,0.947,K,A*32
$GNGGA,022809.00,4739.44379,N,12219.21434,W,1,10,1.22,32.9,M,-18.8,M,,*48
$GNGSA,A,3,10,32,27,23,08,21,,,,,,,2.21,1.22,1.85*1F
$GNGSA,A,3,86,71,72,87,,,,,,,,,2.21,1.22,1.85*12
$GPGSV,3,1,09,08,40,287,24,10,78,028,32,15,03,044,,18,22,125,*78
$GPGSV,3,2,09,21,18,306,18,23,45,069,17,24,22,067,,27,46,239,26*72
$GPGSV,3,3,09,32,51,185,29*42
$GLGSV,3,1,09,70,42,042,19,71,79,267,32,72,29,232,27,78,02,340,*69
$GLGSV,3,2,09,79,10,026,10,80,03,078,,85,34,157,,86,82,221,15*6B
$GLGSV,3,3,09,87,23,326,27*50
$GNGLL,4739.44379,N,12219.21434,W,022809.00,A,A*69
$GNRMC,022810.00,A,4739.44407,N,12219.21410,W,1.239,,140621,,,A*79
$GNVTG,,T,,M,1.239,N,2.296,K,A*3B
$GNGGA,022810.00,4739.44407,N,12219.21410,W,1,10,1.22,32.8,M,-18.8,M,,*49
$GNGSA,A,3,10,32,27,23,08,21,,,,,,,2.22,1.22,1.85*1C
$GNGSA,A,3,86,71,72,87,,,,,,,,,2.22,1.22,1.85*11
$GPGSV,3,1,09,08,40,287,25,10,78,028,32,15,03,044,,18,22,125,*79
$GPGSV,3,2,09,21,18,306,18,23,45,069,14,24,22,067,,27,46,239,24*73
$GPGSV,3,3,09,32,51,185,28*43
$GLGSV,3,1,09,70,42,042,17,71,79,267,31,72,29,232,27,78,02,340,*64
$GLGSV,3,2,09,79,10,026,08,80,03,078,,85,34,157,,86,82,221,15*62
$GLGSV,3,3,09,87,23,326,26*51
$GNGLL,4739.44407,N,12219.21410,W,022810.00,A,A*69
$GNRMC,022811.00,A,4739.44425,N,12219.21401,W,0.583,,140621,,,A*7F
$GNVTG,,T,,M,0.583,N,1.080,K,A*3A
$GNGGA,022811.00,4739.44425,N,12219.21401,W,1,09,2.06,32.8,M,-18.8,M,,*45
$GNGSA,A,3,10,32,27,08,21,,,,,,,,3.29,2.06,2.57*1E
$GNGSA,A,3,86,71,72,87,,,,,,,,,3.29,2.06,2.57*12
$GPGSV,3,1,09,08,40,287,26,10,78,028,31,15,03,044,,18,22,125,*79
$GPGSV,3,2,09,21,18,306,19,23,45,069,09,24,22,067,,27,46,239,24*7E
$GPGSV,3,3,09,32,51,185,30*4A
$GLGSV,3,1,09,70,42,042,14,71,79,267,32,72,29,232,25,78,02,340,*66
$GLGSV,3,2,09,79,10,026,08,80,03,078,,85,34,157,,86,82,221,17*60
$GLGSV,3,3,09,87,23,326,30*56
$GNGLL,4739.44425,N,12219.21401,W,022811.00,A,A*68
$GNRMC,022812.00,A,4739.44443,N,12219.21398,W,0.642,,140621,,,A*75
$GNVTG,,T,,M,0.642,N,1.190,K,A*34
$GNGGA,022812.00,4739.44443,N,12219.21398,W,1,09,2.06,32.8,M,-18.8,M,,*41
$GNGSA,A,3,10,32,27,08,21,,,,,,,,3.29,2.06,2.57*1E
$GNGSA,A,3,86,71,72,87,,,,,,,,,3.29,2.06,2.57*12
$GPGSV,3,1,09,08,40,287,25,10,78,028,32,15,03,044,,18,22,125,*79
$GPGSV,3,2,09,21,18,306,19,23,45,069,07,24,22,067,,27,46,239,23*77
$GPGSV,3,3,09,32,51,185,30*4A
$GLGSV,3,1,09,70,42,042,12,71,79,267,32,72,29,232,24,78,02,340,*61
$GLGSV,3,2,09,79,10,026,08,80,03,078,,85,34,157,,86,82,221,17*60
$GLGSV,3,3,09,87,23,326,23*54
$GNGLL,4739.44443,N,12219.21398,W,022812.00,A,A*6C
$GNRMC,022813.00,A,4739.44465,N,12219.21387,W,0.555,,140621,,,A*7B
$GNVTG,,T,,M,0.555,N,1.028,K,A*33
$GNGGA,022813.00,4739.44465,N,12219.21387,W,1,10,1.22,32.4,M,-18.8,M,,*4B
$GNGSA,A,3,10,32,27,23,08,21,,,,,,,2.22,1.22,1.85*1C
$GNGSA,A,3,86,71,72,87,,,,,,,,,2.22,1.22,1.85*11
$GPGSV,3,1,09,08,40,287,26,10,78,028,32,15,03,044,,18,22,125,*7A
$GPGSV,3,2,09,21,18,306,21,23,45,069,11,24,22,067,,27,46,239,23*7B
$GPGSV,3,3,09,32,51,185,30*4A
$GLGSV,3,1,09,70,42,042,09,71,79,270,33,72,29,232,26,78,02,340,*6E
$GLGSV,3,2,09,79,10,026,08,80,03,078,,85,34,157,,86,82,221,17*60
$GLGSV,3,3,09,87,23,326,23*54
$GNGLL,4739.44465,N,12219.21387,W,022813.00,A,A*67
$GNRMC,022814.00,A,4739.44484,N,12219.21379,W,0.582,,140621,,,A*78
$GNVTG,,T,,M,0.582,N,1.078,K,A*3C
$GNGGA,022814.00,4739.44484,N,12219.21379,W,1,10,1.22,32.1,M,-18.8,M,,*47
$GNGSA,A,3,10,32,27,23,08,21,,,,,,,2.22,1.22,1.85*1C
$GNGSA,A,3,86,71,72,87,,,,,,,,,2.22,1.22,1.85*11
$GPGSV,3,1,09,08,40,287,27,10,78,028,32,15,03,044,,18,22,125,*7B
$GPGSV,3,2,09,21,18,306,22,23,45,069,12,24,22,067,,27,46,239,25*7D
$GPGSV,3,3,09,32,51,185,31*4B
$GLGSV,3,1,09,70,42,042,10,71,79,270,33,72,29,233,27,78,02,340,*66
$GLGSV,3,2,09,79,10,026,08,80,03,078,,85,34,157,,86,82,221,16*61
$GLGSV,3,3,09,87,23,326,29*5E
$GNGLL,4739.44484,N,12219.21379,W,022814.00,A,A*6E
$GNRMC,022815.00,A,4739.44514,N,12219.21345,W,1.340,331.14,140621,,,A*6D
$GNVTG,331.14,T,,M,1.340,N,2.482,K,A*2D
$GNGGA,022815.00,4739.44514,N,12219.21345,W,1,10,1.22,31.9,M,-18.8,M,,*4A
$GNGSA,A,3,10,32,27,23,08,21,,,,,,,2.22,1.22,1.85*1C
$GNGSA,A,3,86,71,72,87,,,,,,,,,2.22,1.22,1.85*11
$GPGSV,3,1,09,08,40,287,28,10,78,028,32,15,03,044,,18,22,125,*74
$GPGSV,3,2,09,21,18,306,19,23,45,069,08,24,22,067,,27,46,239,25*7E
$GPGSV,3,3,09,32,51,185,30*4A
$GLGSV,3,1,09,70,42,042,08,71,79,270,32,72,29,233,25,78,02,340,*6C
$GLGSV,3,2,09,79,10,026,07,80,03,078,,85,34,157,,86,82,221,16*6E
$GLGSV,3,3,09,87,23,326,29*5E
$GNGLL,4739.44514,N,12219.21345,W,022815.00,A,A*68
$GNRMC,022816.00,A,4739.44532,N,12219.21341,W,0.771,,140621,,,A*73
$GNVTG,,T,,M,0.771,N,1.427,K,A*3C
$GNGGA,022816.00,4739.44532,N,12219.21341,W,1,10,2.06,32.2,M,-18.8,M,,*44
$GNGSA,A,3,10,32,27,23,08,21,,,,,,,3.30,2.06,2.58*18
$GNGSA,A,3,86,71,72,87,,,,,,,,,3.30,2.06,2.58*15
$GPGSV,3,1,09,08,40,287,28,10,78,028,34,15,03,044,,18,22,125,*72
$GPGSV,3,2,09,21,18,306,19,23,45,069,12,24,22,067,,27,46,239,26*76
$GPGSV,3,3,09,32,51,185,31*4B
$GLGSV,3,1,09,70,42,042,08,71,79,270,32,72,29,233,22,78,02,340,*6B
$GLGSV,3,2,09,79,10,026,08,80,03,078,,85,34,157,,86,82,221,17*60
$GLGSV,3,3,09,87,23,326,32*54
$GNGLL,4739.44532,N,12219.21341,W,022816.00,A,A*6B
$GNRMC,022817.00,A,4739.44539,N,12219.21328,W,0.589,,140621,,,A*73
$GNVTG,,T,,M,0.589,N,1.091,K,A*30
$GNGGA,022817.00,4739.44539,N,12219.21328,W,1,10,1.22,31.9,M,-18.8,M,,*4C
$GNGSA,A,3,10,32,27,23,08,21,,,,,,,2.22,1.22,1.85*1C
$GNGSA,A,3,86,71,72,87,,,,,,,,,2.22,1.22,1.85*11
$GPGSV,3,1,09,08,40,287,29,10,78,028,35,15,03,044,,18,22,125,*72
$GPGSV,3,2,09,21,18,306,21,23,45,069,10,24,22,067,,27,46,239,31*79
$GPGSV,3,3,09,32,51,185,32*48
$GLGSV,3,1,09,70,42,042,08,71,79,270,28,72,29,233,26,78,02,340,*64
$GLGSV,3,2,09,79,10,026,,80,03,078,,85,34,157,,86,82,221,17*68
$GLGSV,3,3,09,87,23,326,27*50
$GNGLL,4739.44539,N,12219.21328,W,022817.00,A,A*6E
$GNRMC,022818.00,A,4739.44549,N,12219.21332,W,0.668,,140621,,,A*7C
$GNVTG,,T,,M,0.668,N,1.237,K,A*32
$GNGGA,022818.00,4739.44549,N,12219.21332,W,1,10,1.22,31.9,M,-18.8,M,,*4F
$GNGSA,A,3,10,32,27,23,08,21,,,,,,,2.22,1.22,1.85*1C
$GNGSA,A,3,86,71,72,87,,,,,,,,,2.22,1.22,1.85*11
$GPGSV,3,1,09,08,40,287,28,10,78,028,35,15,03,044,,18,22,125,*73
$GPGSV,3,2,09,21,18,306,20,23,45,069,12,24,22,067,,27,46,239,32*79
$GPGSV,3,3,09,32,51,185,27*4C
$GLGSV,3,1,09,70,42,042,08,71,79,270,32,72,29,233,25,78,02,340,*6C
$GLGSV,3,2,09,79,10,026,,80,03,078,,85,34,157,,86,82,221,19*66
$GLGSV,3,3,09,87,23,326,27*50
$GNGLL,4739.44549,N,12219.21332,W,022818.00,A,A*6D
$GNRMC,022819.00,A,4739.44567,N,12219.21328,W,0.433,,140621,,,A*76
$GNVTG,,T,,M,0.433,N,0.803,K,A*32
$GNGGA,022819.00,4739.44567,N,12219.21328,W,1,10,1.22,31.6,M,-18.8,M,,*46
$GNGSA,A,3,10,32,27,23,08,21,,,,,,,2.22,1.22,1.85*1C
$GNGSA,A,3,86,71,72,87,,,,,,,,,2.22,1.22,1.85*11
$GPGSV,3,1,09,08,40,287,28,10,78,028,33,15,03,044,,18,22,125,*75
$GPGSV,3,2,09,21,18,306,22,23,45,069,15,24,22,067,,27,46,239,30*7E
$GPGSV,3,3,09,32,51,185,29*42
$GLGSV,3,1,09,70,42,042,,71,79,270,32,72,29,233,25,78,02,340,*64
$GLGSV,3,2,09,79,10,026,,80,03,078,,85,34,157,,86,82,221,20*6C
$GLGSV,3,3,09,87,23,326,33*55
$GNGLL,4739.44567,N,12219.21328,W,022819.00,A,A*6B
$GNRMC,022820.00,A,4739.44578,N,12219.21329,W,0.614,,140621,,,A*74
$GNVTG,,T,,M,0.614,N,1.137,K,A*3A
$GNGGA,022820.00,4739.44578,N,12219.21329,W,1,10,1.22,31.4,M,-18.8,M,,*41
$GNGSA,A,3,10,32,27,23,08,21,,,,,,,2.22,1.22,1.85*1C
$GNGSA,A,3,86,71,72,87,,,,,,,,,2.22,1.22,1.85*11
$GPGSV,3,1,09,08,40,287,28,10,78,028,33,15,03,044,,18,22,125,*75
$GPGSV,3,2,09,21,18,306,23,23,45,069,15,24,22,067,,27,46,239,32*7D
$GPGSV,3,3,09,32,51,185,29*42
$GLGSV,3,1,09,70,42,042,,71,79,270,32,72,29,233,25,78,02,339,*6A
$GLGSV,3,2,09,79,10,026,,80,03,078,,85,34,157,,86,82,221,20*6C
$GLGSV,3,3,09,87,23,326,31*57
$GNGLL,4739.44578,N,12219.21329,W,022820.00,A,A*6E
$GNRMC,022821.00,A,4739.44592,N,12219.21325,W,0.662,,140621,,,A*7C
$GNVTG,,T,,M,0.662,N,1.226,K,A*38
$GNGGA,022821.00,4739.44592,N,12219.21325,W,1,10,1.22,31.2,M,-18.8,M,,*4E
$GNGSA,A,3,10,32,27,23,08,21,,,,,,,2.22,1.22,1.85*1C
$GNGSA,A,3,86,71,72,87,,,,,,,,,2.22,1.22,1.85*11
$GPGSV,3,1,09,08,40,287,28,10,78,028,27,15,03,044,,18,22,125,*70
$GPGSV,3,2,09,21,18,306,24,23,45,069,15,24,22,067,,27,46,239,31*79
$GPGSV,3,3,09,32,51,185,28*43
$GLGSV,3,1,09,70,42,042,,71,79,270,33,72,29,233,23,78,02,339,*6D
$GLGSV,3,2,09,79,10,026,,80,03,078,,85,34,157,,86,82,221,20*6C
$GLGSV,3,3,09,87,23,326,26*51
$GNGLL,4739.44592,N,12219.21325,W,022821.00,A,A*67
$GNRMC,022822.00,A,4739.44603,N,12219.21319,W,0.734,,140621,,,A*79
$GNVTG,,T,,M,0.734,N,1.360,K,A*39
$GNGGA,022822.00,4739.44603,N,12219.21319,W,1,10,1.22,31.1,M,-18.8,M,,*4A
$GNGSA,A,3,10,32,27,23,08,21,,,,,,,2.22,1.22,1.85*1C
$GNGSA,A,3,86,71,72,87,,,,,,,,,2.22,1.22,1.85*11
$GPGSV,3,1,09,08,40,287,28,10,78,028,29,15,03,044,,18,22,125,*7E
$GPGSV,3,2,09,21,18,306,24,23,45,069,15,24,22,067,,27,46,239,25*7C
$GPGSV,3,3,09,32,51,185,34*4E
$GLGSV,3,1,09,70,42,042,,71,79,270,32,72,29,233,21,78,02,339,*6E
$GLGSV,3,2,09,79,10,026,,80,03,078,,85,34,157,,86,82,221,20*6C
$GLGSV,3,3,09,87,23,326,25*52
$GNGLL,4739.44603,N,12219.21319,W,022822.00,A,A*60
$GNRMC,022823.00,A,4739.44611,N,12219.21319,W,0.361,,140621,,,A*7F
$GNVTG,,T,,M,0.361,N,0.668,K,A*31
$GNGGA,022823.00,4739.44611,N,12219.21319,W,1,10,1.22,31.2,M,-18.8,M,,*4B
$GNGSA,A,3,10,32,27,23,08,21,,,,,,,2.22,1.22,1.85*1C
$GNGSA,A,3,86,71,72,87,,,,,,,,,2.22,1.22,1.85*11
$GPGSV,3,1,09,08,40,287,27,10,78,028,30,15,03,044,,18,22,125,*79
$GPGSV,3,2,09,21,18,306,25,23,45,069,15,24,22,067,,27,46,239,31*78
$GPGSV,3,3,09,32,51,185,32*48
$GLGSV,3,1,09,70,42,042,,71,79,270,31,72,29,233,21,78,02,339,*6D
$GLGSV,3,2,09,79,10,026,,80,03,078,,85,34,157,,86,82,221,20*6C
$GLGSV,3,3,09,87,23,326,30*56
$GNGLL,4739.44611,N,12219.21319,W,022823.00,A,A*62
$GNRMC,022824.00,A,4739.44614,N,12219.21319,W,0.603,,140621,,,A*7C
VTG,,T,,M,0.603,N,1.116,K,A*3F
$GNGGA,022824.00,4739.44614,N,12219.21319,W,1,10,1.22,31.3,M,-18.8,M,,*48
$GNGSA,A,3,10,32,27,23,08,21,,,,,,,2.22,1.22,1.85*1C
$GNGSA,A,3,86,71,72,87,,,,,,,,,2.22,1.22,1.85*11
$GPGSV,3,1,09,08,40,287,27,10,78,028,31,15,03,044,,18,22,125,*78
$GPGSV,3,2,09,21,18,306,25,23,45,069,15,24,22,067,,27,46,239,30*79
$GPGSV,3,3,09,32,51,185,31*4B
$GLGSV,3,1,09,70,42,042,,71,79,270,30,72,29,233,24,78,02,339,*69
$GLGSV,3,2,09,79,10,026,,80,03,078,,85,34,157,,86,82,221,20*6C
$GLGSV,3,3,09,87,23,326,30*56
$GNGLL,4739.44614,N,12219.21319,W,022824.00,A,A*60
$GNRMC,022825.00,A,4739.44633,N,12219.21321,W,0.943,,140621,,,A*78
$GNVTG,,T,,M,0.943,N,1.746,K,A*37
$GNGGA,022825.00,4739.44633,N,12219.21321,W,1,10,1.22,31.3,M,-18.8,M,,*47
$GNGSA,A,3,10,32,27,23,08,21,,,,,,,2.22,1.22,1.85*1C
$GNGSA,A,3,86,71,72,87,,,,,,,,,2.22,1.22,1.85*11
$GPGSV,3,1,09,08,40,287,28,10,78,028,31,15,03,044,,18,22,125,*77
$GPGSV,3,2,09,21,18,306,26,23,45,069,10,24,22,067,,27,46,239,30*7F
$GPGSV,3,3,09,32,51,185,30*4A
$GLGSV,3,1,09,70,42,042,,71,79,270,30,72,29,233,22,78,02,339,*6F
$GLGSV,3,2,09,79,10,026,,80,03,078,,85,34,157,,86,82,221,19*66
$GLGSV,3,3,09,87,23,326,30*56
$GNGLL,4739.44633,N,12219.21321,W,022825.00,A,A*6F
$GNRMC,022826.00,A,4739.44660,N,12219.21330,W,1.026,,140621,,,A*76
$GNVTG,,T,,M,1.026,N,1.900,K,A*30
$GNGGA,022826.00,4739.44660,N,12219.21330,W,1,10,1.22,31.2,M,-18.8,M,,*43
$GNGSA,A,3,10,32,27,23,08,21,,,,,,,2.22,1.22,1.85*1C
$GNGSA,A,3,86,71,72,87,,,,,,,,,2.22,1.22,1.85*11
$GPGSV,3,1,09,08,40,287,28,10,78,028,31,15,03,044,,18,22,125,*77
$GPGSV,3,2,09,21,18,306,26,23,45,069,10,24,22,067,,27,46,239,30*7F
$GPGSV,3,3,09,32,51,185,30*4A
$GLGSV,3,1,09,70,42,042,,71,79,270,31,72,29,233,23,78,02,339,*6F
$GLGSV,3,2,09,79,10,026,,80,03,078,,85,34,157,,86,82,221,19*66
$GLGSV,3,3,09,87,23,326,22*55
$GNGLL,4739.44660,N,12219.21330,W,022826.00,A,A*6A
$GNRMC,022827.00,A,4739.44674,N,12219.21365,W,0.771,,140621,,,A*76
$GNVTG,,T,,M,0.771,N,1.428,K,A*33
$GNGGA,022827.00,4739.44674,N,12219.21365,W,1,10,1.22,31.4,M,-18.8,M,,*41
$GNGSA,A,3,10,32,27,23,08,21,,,,,,,2.22,1.22,1.85*1C
$GNGSA,A,3,86,71,72,87,,,,,,,,,2.22,1.22,1.85*11
$GPGSV,3,1,09,08,40,287,26,10,78,028,31,15,03,044,,18,22,125,*79
$GPGSV,3,2,09,21,18,306,25,23,45,069,10,24,22,067,,27,46,239,27*7A
$GPGSV,3,3,09,32,51,185,31*4B
$GLGSV,3,1,09,70,42,042,,71,79,270,28,72,29,233,22,78,02,339,*66
$GLGSV,3,2,09,79,10,026,,80,03,078,,85,33,157,,86,82,221,19*61
$GLGSV,3,3,09,87,23,326,30*56
$GNGLL,4739.44674,N,12219.21365,W,022827.00,A,A*6E
$GNRMC,022828.00,A,4739.44708,N,12219.21387,W,1.366,,140621,,,A*7C
$GNVTG,,T,,M,1.366,N,2.529,K,A*33
$GNGGA,022828.00,4739.44708,N,12219.21387,W,1,10,1.22,31.4,M,-18.8,M,,*48
$GNGSA,A,3,10,32,27,23,08,21,,,,,,,2.22,1.22,1.85*1C
$GNGSA,A,3,86,71,72,87,,,,,,,,,2.22,1.22,1.85*11
$GPGSV,3,1,09,08,40,287,26,10,78,028,30,15,03,044,,18,22,125,*78
$GPGSV,3,2,09,21,18,306,25,23,45,069,10,24,22,067,,27,46,239,27*7A
$GPGSV,3,3,09,32,51,185,32*48
$GLGSV,3,1,09,70,42,042,,71,79,270,29,72,29,233,22,78,02,339,*67
$GLGSV,3,2,09,79,10,026,,80,03,078,,85,33,157,,86,81,218,20*62
$GLGSV,3,3,09,87,23,326,29*5E
$GNGLL,4739.44708,N,12219.21387,W,022828.00,A,A*67
$GNRMC,022829.00,A,4739.44741,N,12219.21386,W,1.134,,140621,,,A*74
$GNVTG,,T,,M,1.134,N,2.101,K,A*38
$GNGGA,022829.00,4739.44741,N,12219.21386,W,1,10,1.22,31.1,M,-18.8,M,,*40
$GNGSA,A,3,10,32,27,23,08,21,,,,,,,2.22,1.22,1.85*1C
$GNGSA,A,3,86,71,72,87,,,,,,,,,2.22,1.22,1.85*11
$GPGSV,3,1,09,08,40,287,24,10,78,028,30,15,03,044,,18,22,125,*7A
$GPGSV,3,2,09,21,18,306,26,23,45,069,10,24,22,067,,27,46,239,28*76
$GPGSV,3,3,09,32,51,185,33*49
$GLGSV,3,1,09,70,42,042,,71,79,270,29,72,29,233,22,78,02,339,*67
$GLGSV,3,2,09,79,10,026,,80,03,078,,85,33,157,,86,81,218,20*62
$GLGSV,3,3,09,87,24,326,29*59
$GNGLL,4739.44741,N,12219.21386,W,022829.00,A,A*6A
$GNRMC,022830.00,A,4739.44774,N,12219.21396,W,1.236,,140621,,,A*7A
$GNVTG,,T,,M,1.236,N,2.289,K,A*3A
$GNGGA,022830.00,4739.44774,N,12219.21396,W,1,10,1.22,31.0,M,-18.8,M,,*4E
$GNGSA,A,3,10,32,27,23,08,21,,,,,,,2.22,1.22,1.85*1C
$GNGSA,A,3,86,71,72,87,,,,,,,,,2.22,1.22,1.85*11
$GPGSV,3,1,09,08,40,287,27,10,78,028,31,15,03,044,,18,22,125,*78
$GPGSV,3,2,09,21,18,306,26,23,45,069,10,24,22,067,05,27,46,239,29*72
$GPGSV,3,3,09,32,51,185,33*49
$GLGSV,3,1,09,70,42,042,,71,79,270,33,72,29,233,21,78,02,339,*6F
$GLGSV,3,2,09,79,10,026,,80,03,078,,85,33,157,,86,81,218,21*63
$GLGSV,3,3,09,87,24,326,28*58
$GNGLL,4739.44774,N,12219.21396,W,022830.00,A,A*65
$GNRMC,022831.00,A,4739.44809,N,12219.21400,W,1.187,,140621,,,A*7F
$GNVTG,,T,,M,1.187,N,2.198,K,A*30
$GNGGA,022831.00,4739.44809,N,12219.21400,W,1,10,1.22,30.8,M,-18.8,M,,*4B
$GNGSA,A,3,10,32,27,23,08,21,,,,,,,2.22,1.22,1.85*1C
$GNGSA,A,3,86,71,72,87,,,,,,,,,2.22,1.22,1.85*11
$GPGSV,3,1,09,08,40,287,26,10,78,028,33,15,03,044,,18,22,125,*7B
$GPGSV,3,2,09,21,18,306,27,23,45,069,21,24,22,067,10,27,46,239,29*75
$GPGSV,3,3,09,32,51,185,33*49
$GLGSV,3,1,09,70,42,042,,71,79,270,32,72,29,233,20,78,02,339,*6F
$GLGSV,3,2,09,79,10,026,,80,03,078,,85,33,157,,86,81,218,20*62
$GLGSV,3,3,09,87,24,326,27*57
$GNGLL,4739.44809,N,12219.21400,W,022831.00,A,A*69
$GNRMC,022832.00,A,4739.44845,N,12219.21403,W,1.255,,140621,,,A*7B
$GNVTG,,T,,M,1.255,N,2.325,K,A*38
$GNGGA,022832.00,4739.44845,N,12219.21403,W,1,10,1.22,30.6,M,-18.8,M,,*4D
$GNGSA,A,3,10,32,27,23,08,21,,,,,,,2.22,1.22,1.86*1F
$GNGSA,A,3,86,71,72,87,,,,,,,,,2.22,1.22,1.86*12
$GPGSV,3,1,09,08,40,287,26,10,78,028,30,15,03,044,,18,22,125,*78
$GPGSV,3,2,09,21,18,306,27,23,45,069,19,24,22,067,18,27,46,239,29*76
$GPGSV,3,3,09,32,51,185,32*48
$GLGSV,3,1,09,70,42,042,,71,79,270,32,72,29,233,28,78,02,339,*67
$GLGSV,3,2,09,79,10,026,,80,03,078,,85,33,157,,86,81,218,20*62
$GLGSV,3,3,09,87,24,326,27*57
$GNGLL,4739.44845,N,12219.21403,W,022832.00,A,A*61
$GNRMC,022833.00,A,4739.44884,N,12219.21391,W,1.360,345.25,140621,,,A*67
$GNVTG,345.25,T,,M,1.360,N,2.519,K,A*2D
$GNGGA,022833.00,4739.44884,N,12219.21391,W,1,11,1.01,30.3,M,-18.8,M,,*48
$GNGSA,A,3,10,32,27,23,08,24,21,,,,,,1.76,1.01,1.44*14
$GNGSA,A,3,86,71,72,87,,,,,,,,,1.76,1.01,1.44*1F
$GPGSV,3,1,09,08,40,287,27,10,78,028,30,15,03,044,,18,22,125,*79
$GPGSV,3,2,09,21,18,306,27,23,45,069,30,24,22,067,20,27,46,239,28*77
$GPGSV,3,3,09,32,51,185,31*4B
$GLGSV,3,1,09,70,42,042,,71,79,270,32,72,29,233,28,78,02,339,*67
$GLGSV,3,2,09,79,10,026,,80,03,078,,85,33,157,,86,81,218,20*62
$GLGSV,3,3,09,87,24,326,26*56
$GNGLL,4739.44884,N,12219.21391,W,022833.00,A,A*61
$GNRMC,022834.00,A,4739.44912,N,12219.21388,W,0.953,,140621,,,A*76
$GNVTG,,T,,M,0.953,N,1.765,K,A*37
$GNGGA,022834.00,4739.44912,N,12219.21388,W,1,11,1.01,30.0,M,-18.8,M,,*4A
$GNGSA,A,3,10,32,27,23,08,24,21,,,,,,1.76,1.01,1.44*14
$GNGSA,A,3,86,71,72,87,,,,,,,,,1.76,1.01,1.44*1F
$GPGSV,3,1,09,08,40,287,26,10,78,028,31,15,03,044,,18,22,125,*79
$GPGSV,3,2,09,21,18,306,26,23,45,069,29,24,22,067,21,27,46,239,22*75
$GPGSV,3,3,09,32,51,185,29*42
$GLGSV,3,1,09,70,42,042,20,71,79,270,33,72,29,233,26,78,02,339,*6A
$GLGSV,3,2,09,79,10,026,,80,03,078,,85,33,157,,86,81,218,21*63
$GLGSV,3,3,09,87,24,326,24*54
$GNGLL,4739.44912,N,12219.21388,W,022834.00,A,A*60
$GNRMC,022835.00,A,4739.44919,N,12219.21395,W,0.177,,140621,,,A*7E
$GNVTG,,T,,M,0.177,N,0.327,K,A*3A
$GNGGA,022835.00,4739.44919,N,12219.21395,W,1,11,1.01,30.0,M,-18.8,M,,*4C
$GNGSA,A,3,10,32,27,23,08,24,21,,,,,,1.76,1.01,1.44*14
$GNGSA,A,3,86,71,72,87,,,,,,,,,1.76,1.01,1.44*1F
$GPGSV,3,1,09,08,40,287,26,10,78,028,31,15,03,044,,18,22,125,*79
$GPGSV,3,2,09,21,18,306,27,23,45,069,31,24,22,067,19,27,46,239,31*74
$GPGSV,3,3,09,32,51,185,29*42
$GLGSV,3,1,09,70,42,042,21,71,79,270,33,72,29,233,26,78,02,339,*6B
$GLGSV,3,2,09,79,10,026,,80,03,078,,85,33,157,,86,81,218,20*62
$GLGSV,3,3,09,87,24,326,25*55
$GNGLL,4739.44919,N,12219.21395,W,022835.00,A,A*66
$GNRMC,022836.00,A,4739.44923,N,12219.21404,W,0.308,,140621,,,A*71
$GNVTG,,T,,M,0.308,N,0.570,K,A*34
$GNGGA,022836.00,4739.44923,N,12219.21404,W,1,11,1.01,30.1,M,-18.8,M,,*48
$GNGSA,A,3,10,32,27,23,08,24,21,,,,,,1.76,1.01,1.44*14
$GNGSA,A,3,86,71,72,87,,,,,,,,,1.76,1.01,1.44*1F
$GPGSV,3,1,09,08,40,287,25,10,78,028,30,15,03,044,,18,22,125,*7B
$GPGSV,3,2,09,21,18,306,27,23,45,069,30,24,22,067,18,27,46,239,29*7D
$GPGSV,3,3,09,32,51,185,29*42
$GLGSV,3,1,09,70,42,042,21,71,79,270,33,72,29,233,25,78,02,339,*68
$GLGSV,3,2,09,79,10,026,,80,03,078,,85,33,157,,86,81,218,19*68
$GLGSV,3,3,09,87,24,326,25*55
$GNGLL,4739.44923,N,12219.21404,W,022836.00,A,A*63
$GNRMC,022837.00,A,4739.44934,N,12219.21402,W,0.673,,140621,,,A*79
$GNVTG,,T,,M,0.673,N,1.245,K,A*3D
$GNGGA,022837.00,4739.44934,N,12219.21402,W,1,11,1.01,29.9,M,-18.8,M,,*49
$GNGSA,A,3,10,32,27,23,08,24,21,,,,,,1.76,1.01,1.44*14
$GNGSA,A,3,86,71,72,87,,,,,,,,,1.76,1.01,1.44*1F
$GPGSV,3,1,09,08,40,287,26,10,78,028,30,15,03,044,,18,22,125,*78
$GPGSV,3,2,09,21,18,306,27,23,45,069,30,24,22,067,18,27,46,239,30*75
$GPGSV,3,3,09,32,51,185,28*43
$GLGSV,3,1,09,70,42,042,21,71,79,270,31,72,29,233,26,78,02,339,*69
$GLGSV,3,2,09,79,10,026,,80,03,078,,85,33,157,,86,81,218,20*62
$GLGSV,3,3,09,87,24,326,26*56
$GNGLL,4739.44934,N,12219.21402,W,022837.00,A,A*62
$GNRMC,022838.00,A,4739.44957,N,12219.21403,W,1.106,349.31,140621,,,A*64
$GNVTG,349.31,T,,M,1.106,N,2.048,K,A*27
$GNGGA,022838.00,4739.44957,N,12219.21403,W,1,11,1.01,29.8,M,-18.8,M,,*43
$GNGSA,A,3,10,32,27,23,08,24,21,,,,,,1.76,1.01,1.44*14
$GNGSA,A,3,86,71,72,87,,,,,,,,,1.76,1.01,1.44*1F
$GPGSV,3,1,09,08,40,287,26,10,78,028,29,15,03,044,,18,22,125,*70
$GPGSV,3,2,09,21,18,306,27,23,45,069,29,24,22,067,21,27,46,239,24*72
$GPGSV,3,3,09,32,51,185,29*42
$GLGSV,3,1,09,70,42,042,20,71,79,270,32,72,29,233,26,78,02,339,*6B
$GLGSV,3,2,09,79,10,026,,80,03,078,,85,33,157,,86,81,218,20*62
$GLGSV,3,3,09,87,24,326,26*56
$GNGLL,4739.44957,N,12219.21403,W,022838.00,A,A*69
$GNRMC,022839.00,A,4739.44992,N,12219.21405,W,1.158,356.33,140621,,,A*6D
$GNVTG,356.33,T,,M,1.158,N,2.145,K,A*2C
$GNGGA,022839.00,4739.44992,N,12219.21405,W,1,11,1.01,30.0,M,-18.8,M,,*4D
$GNGSA,A,3,10,32,27,23,08,24,21,,,,,,1.76,1.01,1.45*15
$GNGSA,A,3,86,71,72,87,,,,,,,,,1.76,1.01,1.45*1E
$GPGSV,3,1,09,08,40,287,26,10,78,028,30,15,03,044,,18,22,125,*78
$GPGSV,3,2,09,21,18,306,27,23,45,069,30,24,22,067,21,27,46,239,30*7F
$GPGSV,3,3,09,32,51,185,28*43
$GLGSV,3,1,09,70,42,042,20,71,79,270,32,72,29,233,32,78,02,339,*6E
$GLGSV,3,2,09,79,10,026,,80,03,078,,85,33,157,,86,81,218,20*62
$GLGSV,3,3,09,87,24,326,25*55
$GNGLL,4739.44992,N,12219.21405,W,022839.00,A,A*67
$GNRMC,022840.00,A,4739.45034,N,12219.21409,W,1.555,357.02,140621,,,A*61
$GNVTG,357.02,T,,M,1.555,N,2.880,K,A*26
$GNGGA,022840.00,4739.45034,N,12219.21409,W,1,11,1.01,30.0,M,-18.8,M,,*4B
$GNGSA,A,3,10,32,27,23,08,24,21,,,,,,1.76,1.01,1.45*15
$GNGSA,A,3,86,71,72,87,,,,,,,,,1.76,1.01,1.45*1E
$GPGSV,3,1,09,08,40,287,25,10,78,030,30,15,03,044,,18,22,125,*72
$GPGSV,3,2,09,21,18,306,25,23,45,069,30,24,22,067,21,27,46,239,31*7C
$GPGSV,3,3,09,32,51,185,27*4C
$GLGSV,3,1,09,70,42,042,18,71,79,270,31,72,29,233,28,78,02,339,*6D
$GLGSV,3,2,09,79,10,026,,80,03,078,,85,33,157,,86,81,218,19*68
$GLGSV,3,3,09,87,24,326,24*54
$GNGLL,4739.45034,N,12219.21409,W,022840.00,A,A*61
$GNRMC,022841.00,A,4739.45064,N,12219.21390,W,1.187,,140621,,,A*74
$GNVTG,,T,,M,1.187,N,2.198,K,A*30
$GNGGA,022841.00,4739.45064,N,12219.21390,W,1,11,1.01,30.0,M,-18.8,M,,*48
$GNGSA,A,3,10,32,27,23,08,24,21,,,,,,1.76,1.01,1.45*15
$GNGSA,A,3,86,71,72,87,,,,,,,,,1.76,1.01,1.45*1E
$GPGSV,3,1,09,08,40,287,25,10,78,030,29,15,03,044,,18,22,125,*7A
$GPGSV,3,2,09,21,18,306,24,23,45,069,29,24,22,067,20,27,46,239,30*75
$GPGSV,3,3,09,32,51,185,25*4E
$GLGSV,3,1,09,70,42,042,17,71,79,270,30,72,29,233,28,78,02,339,*63
$GLGSV,3,2,09,79,10,026,,80,03,078,,85,33,157,,86,81,218,19*68
$GLGSV,3,3,09,87,24,326,21*51
$GNGLL,4739.45064,N,12219.21390,W,022841.00,A,A*62
$GNRMC,022842.00,A,4739.45082,N,12219.21379,W,0.937,,140621,,,A*7A
$GNVTG,,T,,M,0.937,N,1.735,K,A*30
$GNGGA,022842.00,4739.45082,N,12219.21379,W,1,11,1.01,30.2,M,-18.8,M,,*46
$GNGSA,A,3,10,32,27,23,08,24,21,,,,,,1.76,1.01,1.45*15
$GNGSA,A,3,86,71,72,87,,,,,,,,,1.76,1.01,1.45*1E
$GPGSV,3,1,09,08,40,287,25,10,78,030,27,15,03,044,,18,22,125,*74
$GPGSV,3,2,09,21,18,306,23,23,45,069,28,24,22,067,21,27,46,239,31*73
$GPGSV,3,3,09,32,51,185,31*4B
$GLGSV,3,1,09,70,42,042,16,71,79,270,29,72,29,233,32,78,02,339,*61
$GLGSV,3,2,09,79,10,026,,80,03,078,,85,33,157,,86,81,218,18*69
$GLGSV,3,3,09,87,24,326,19*5A
$GNGLL,4739.45082,N,12219.21379,W,022842.00,A,A*6E
$GNRMC,022843.00,A,4739.45115,N,12219.21376,W,1.748,,140621,,,A*7C
$GNVTG,,T,,M,1.748,N,3.237,K,A*32
$GNGGA,022843.00,4739.45115,N,12219.21376,W,1,11,1.01,30.1,M,-18.8,M,,*44
$GNGSA,A,3,10,32,27,23,08,24,21,,,,,,1.76,1.01,1.45*15
$GNGSA,A,3,86,71,72,87,,,,,,,,,1.76,1.01,1.45*1E
$GPGSV,3,1,09,08,40,287,23,10,78,030,28,15,03,044,,18,22,125,*7D
$GPGSV,3,2,09,21,18,306,21,23,45,069,27,24,22,067,19,27,46,239,31*75
$GPGSV,3,3,09,32,51,185,34*4E
$GLGSV,3,1,09,70,42,042,16,71,79,270,29,72,29,233,26,78,02,339,*64
$GLGSV,3,2,09,79,10,026,,80,03,078,,85,33,157,,86,81,218,18*69
$GLGSV,3,3,09,87,24,326,17*54
$GNGLL,4739.45115,N,12219.21376,W,022843.00,A,A*6F
$GNRMC,022844.00,A,4739.45158,N,12219.21400,W,1.993,339.88,140621,,,A*6B
$GNVTG,339.88,T,,M,1.993,N,3.691,K,A*25
$GNGGA,022844.00,4739.45158,N,12219.21400,W,1,11,1.01,29.9,M,-18.8,M,,*4C
$GNGSA,A,3,10,32,27,23,08,24,21,,,,,,1.76,1.01,1.45*15
$GNGSA,A,3,86,71,72,87,,,,,,,,,1.76,1.01,1.45*1E
$GPGSV,3,1,09,08,40,287,22,10,78,030,29,15,03,044,,18,22,125,*7D
$GPGSV,3,2,09,21,18,306,18,23,45,069,27,24,22,067,19,27,46,239,31*7F
$GPGSV,3,3,09,32,51,185,34*4E
$GLGSV,3,1,09,70,42,042,16,71,79,270,29,72,29,233,23,78,02,339,*61
$GLGSV,3,2,09,79,10,026,,80,03,078,,85,33,157,20,86,81,218,17*64
$GLGSV,3,3,09,87,24,326,19*5A
$GNGLL,4739.45158,N,12219.21400,W,022844.00,A,A*67
$GNRMC,022845.00,A,4739.45179,N,12219.21411,W,0.941,,140621,,,A*70
$GNVTG,,T,,M,0.941,N,1.743,K,A*30
$GNGGA,022845.00,4739.45179,N,12219.21411,W,1,11,1.01,29.8,M,-18.8,M,,*4F
$GNGSA,A,3,10,32,27,23,08,24,21,,,,,,1.76,1.01,1.45*15
$GNGSA,A,3,86,71,72,87,,,,,,,,,1.76,1.01,1.45*1E
$GPGSV,3,1,09,08,40,287,21,10,78,030,29,15,03,044,,18,22,125,*7E
$GPGSV,3,2,09,21,18,306,17,23,45,069,27,24,22,067,19,27,46,239,30*71
$GPGSV,3,3,09,32,51,185,34*4E
$GLGSV,3,1,09,70,42,042,17,71,79,270,28,72,29,233,24,78,02,339,*66
$GLGSV,3,2,09,79,10,026,,80,03,078,,85,33,157,18,86,81,218,16*6E
$GLGSV,3,3,09,87,24,326,18*5B
$GNGLL,4739.45179,N,12219.21411,W,022845.00,A,A*65
$GNRMC,022846.00,A,4739.45174,N,12219.21409,W,0.245,,140621,,,A*78
$GNVTG,,T,,M,0.245,N,0.454,K,A*3B
$GNGGA,022846.00,4739.45174,N,12219.21409,W,1,11,1.01,29.8,M,-18.8,M,,*48
$GNGSA,A,3,10,32,27,23,08,24,21,,,,,,1.76,1.01,1.45*15
$GNGSA,A,3,86,71,72,87,,,,,,,,,1.76,1.01,1.45*1E
$GPGSV,3,1,09,08,40,287,21,10,78,030,30,15,03,044,,18,22,125,*76
$GPGSV,3,2,09,21,18,306,15,23,45,069,28,24,22,067,17,27,46,239,30*72
$GPGSV,3,3,09,32,51,185,33*49
$GLGSV,3,1,09,70,42,042,15,71,79,270,27,72,29,233,24,78,02,339,*6B
$GLGSV,3,2,09,79,10,026,,80,03,078,,85,33,157,17,86,81,218,16*61
$GLGSV,3,3,09,87,24,326,19*5A
$GNGLL,4739.45174,N,12219.21409,W,022846.00,A,A*62
$GNRMC,022847.00,A,4739.45184,N,12219.21352,W,1.859,,140621,,,A*79
$GNVTG,,T,,M,1.859,N,3.442,K,A*39
$GNGGA,022847.00,4739.45184,N,12219.21352,W,1,12,0.85,29.5,M,-18.8,M,,*4C
$GNGSA,A,3,10,32,27,23,08,24,21,,,,,,1.57,0.85,1.32*1B
$GNGSA,A,3,86,71,85,72,87,,,,,,,,1.57,0.85,1.32*1D
$GPGSV,3,1,09,08,40,287,23,10,78,030,33,15,03,044,,18,21,125,*74
$GPGSV,3,2,09,21,18,306,15,23,45,069,29,24,22,067,17,27,46,239,30*73
$GPGSV,3,3,09,32,51,185,30*4A
$GLGSV,3,1,09,70,42,042,14,71,79,270,27,72,29,233,25,78,02,339,*6B
$GLGSV,3,2,09,79,10,026,,80,03,078,,85,33,157,18,86,81,218,15*6D
$GLGSV,3,3,09,87,24,326,18*5B
$GNGLL,4739.45184,N,12219.21352,W,022847.00,A,A*65
$GNRMC,022848.00,A,4739.45181,N,12219.21214,W,4.073,58.18,140621,,,A*5F
$GNVTG,58.18,T,,M,4.073,N,7.543,K,A*12
$GNGGA,022848.00,4739.45181,N,12219.21214,W,1,12,0.85,29.5,M,-18.8,M,,*45
$GNGSA,A,3,10,32,27,23,08,24,21,,,,,,1.57,0.85,1.32*1B
$GNGSA,A,3,86,71,85,72,87,,,,,,,,1.57,0.85,1.32*1D
$GPGSV,3,1,09,08,40,287,21,10,78,030,32,15,03,044,,18,21,125,*77
$GPGSV,3,2,09,21,18,306,14,23,45,069,29,24,22,067,18,27,46,239,28*74
$GPGSV,3,3,09,32,51,185,33*49
$GLGSV,3,1,09,70,42,042,13,71,79,270,27,72,29,233,26,78,02,339,*6F
$GLGSV,3,2,09,79,10,026,,80,03,078,,85,33,157,17,86,81,218,14*63
$GLGSV,3,3,09,87,24,326,19*5A
$GNGLL,4739.45181,N,12219.21214,W,022848.00,A,A*6C
$GNRMC,022849.00,A,4739.45177,N,12219.20977,W,6.474,84.42,140621,,,A*57
$GNVTG,84.42,T,,M,6.474,N,11.989,K,A*20
$GNGGA,022849.00,4739.45177,N,12219.20977,W,1,12,0.85,29.9,M,-18.8,M,,*4E
$GNGSA,A,3,10,32,27,23,08,24,21,,,,,,1.57,0.85,1.32*1B
$GNGSA,A,3,86,71,85,72,87,,,,,,,,1.57,0.85,1.32*1D
$GPGSV,3,1,09,08,40,287,19,10,78,030,32,15,03,044,,18,21,125,*7C
$GPGSV,3,2,09,21,18,306,13,23,45,069,27,24,22,067,17,27,46,239,25*7F
$GPGSV,3,3,09,32,51,185,33*49
$GLGSV,3,1,09,70,42,042,13,71,79,270,27,72,29,233,25,78,02,339,*6C
$GLGSV,3,2,09,79,10,026,,80,03,078,,85,33,157,18,86,81,218,14*6C
$GLGSV,3,3,09,87,24,326,25*55
$GNGLL,4739.45177,N,12219.20977,W,022849.00,A,A*6B
$GNRMC,022850.00,A,4739.45186,N,12219.20681,W,7.598,85.57,140621,,,A*50
$GNVTG,85.57,T,,M,7.598,N,14.072,K,A*2F
$GNGGA,022850.00,4739.45186,N,12219.20681,W,1,12,0.85,29.5,M,-18.8,M,,*42
$GNGSA,A,3,10,32,27,23,08,24,21,,,,,,1.57,0.85,1.32*1B
$GNGSA,A,3,86,71,85,72,87,,,,,,,,1.57,0.85,1.32*1D
$GPGSV,3,1,09,08,40,287,19,10,78,030,33,15,03,044,,18,21,125,*7D
$GPGSV,3,2,09,21,19,306,12,23,45,069,26,24,22,067,19,27,46,239,23*76
$GPGSV,3,3,09,32,51,185,32*48
$GLGSV,3,1,09,70,42,042,14,71,79,270,29,72,29,233,24,78,02,339,*64
$GLGSV,3,2,09,79,10,026,,80,03,078,,85,33,157,20,86,81,218,13*60
$GLGSV,3,3,09,87,24,326,23*53
$GNGLL,4739.45186,N,12219.20681,W,022850.00,A,A*6B
$GNRMC,022851.00,A,4739.45193,N,12219.20324,W,9.105,86.57,140621,,,A*52
$GNVTG,86.57,T,,M,9.105,N,16.862,K,A*29
$GNGGA,022851.00,4739.45193,N,12219.20324,W,1,11,0.85,29.6,M,-18.8,M,,*4D
$GNGSA,A,3,10,32,27,23,08,24,21,,,,,,1.69,0.85,1.46*15
$GNGSA,A,3,71,85,72,87,,,,,,,,,1.69,0.85,1.46*1D
$GPGSV,3,1,09,08,40,287,20,10,78,030,34,15,03,044,,18,21,125,*70
$GPGSV,3,2,09,21,19,306,15,23,45,069,26,24,22,067,18,27,46,239,24*77
$GPGSV,3,3,09,32,51,185,32*48
$GLGSV,3,1,09,70,42,042,15,71,79,270,29,72,29,233,24,78,02,339,*65
$GLGSV,3,2,09,79,10,026,,80,03,078,,85,33,157,21,86,81,218,10*62
$GLGSV,3,3,09,87,24,326,23*53
$GNGLL,4739.45193,N,12219.20324,W,022851.00,A,A*64
$GNRMC,022852.00,A,4739.45192,N,12219.19908,W,10.493,88.09,140621,,,A*69
$GNVTG,88.09,T,,M,10.493,N,19.434,K,A*1E
$GNGGA,022852.00,4739.45192,N,12219.19908,W,1,11,0.85,30.3,M,-18.8,M,,*4C
$GNGSA,A,3,10,32,27,23,08,24,21,,,,,,1.69,0.85,1.46*15
$GNGSA,A,3,71,85,72,87,,,,,,,,,1.69,0.85,1.46*1D
$GPGSV,3,1,09,08,40,287,19,10,78,030,33,15,03,044,,18,21,125,*7D
$GPGSV,3,2,09,21,19,306,21,23,44,069,27,24,22,067,17,27,46,239,25*7E
$GPGSV,3,3,09,32,51,185,33*49
$GLGSV,3,1,09,70,42,042,14,71,79,270,28,72,29,233,22,78,02,339,*63
$GLGSV,3,2,09,79,10,026,,80,03,078,,85,33,157,20,86,81,218,09*6B
$GLGSV,3,3,09,87,24,326,22*52
$GNGLL,4739.45192,N,12219.19908,W,022852.00,A,A*68
$GNRMC,022853.00,A,4739.45195,N,12219.19432,W,11.901,88.10,140621,,,A*64
$GNVTG,88.10,T,,M,11.901,N,22.040,K,A*1E
$GNGGA,022853.00,4739.45195,N,12219.19432,W,1,11,0.85,31.0,M,-18.8,M,,*4C
$GNGSA,A,3,10,32,27,23,08,24,21,,,,,,1.69,0.85,1.46*15
$GNGSA,A,3,71,85,72,87,,,,,,,,,1.69,0.85,1.46*1D
$GPGSV,3,1,09,08,40,287,18,10,78,030,33,15,03,044,,18,21,125,*7C
$GPGSV,3,2,09,21,19,306,20,23,44,069,27,24,22,067,15,27,46,239,25*7D
$GPGSV,3,3,09,32,51,185,32*48
$GLGSV,3,1,09,70,42,042,14,71,79,270,28,72,29,233,21,78,02,339,*60
$GLGSV,3,2,09,79,10,026,,80,03,078,,85,33,157,29,86,81,218,08*63
$GLGSV,3,3,09,87,24,326,25*55
$GNGLL,4739.45195,N,12219.19432,W,022853.00,A,A*6A
$GNRMC,022854.00,A,4739.45200,N,12219.18879,W,13.765,88.08,140621,,,A*69
$GNVTG,88.08,T,,M,13.765,N,25.493,K,A*14
$GNGGA,022854.00,4739.45200,N,12219.18879,W,1,11,0.85,31.7,M,-18.8,M,,*41
$GNGSA,A,3,10,32,27,23,08,24,21,,,,,,1.69,0.85,1.46*15
$GNGSA,A,3,71,85,72,87,,,,,,,,,1.69,0.85,1.46*1D
$GPGSV,3,1,09,08,40,287,16,10,78,030,33,15,03,044,,18,21,125,*72
$GPGSV,3,2,09,21,19,306,19,23,44,069,28,24,22,067,14,27,46,239,24*78
$GPGSV,3,3,09,32,51,185,32*48
$GLGSV,3,1,09,70,42,042,16,71,79,270,28,72,29,233,22,78,02,339,*61
$GLGSV,3,2,09,79,10,026,,80,03,078,,85,33,157,28,86,81,218,07*6D
$GLGSV,3,3,09,87,24,326,23*53
