$GPRMC,235453,A,4736.760,N,12219.740,W,000.0,360.0,070712,019.5,E*64

$GPRMB,A,,,,,,,,,,,,V*71

$GPGGA,235453,4736.760,N,12219.740,W,1,05,2.2,104.1,M,-18.4,M,,*7A

$GPGSA,A,3,01,02,04,,,,17,,28,,,,2.9,2.2,1.9*3A

$GPGSV,3,1,10,01,03,030,44,02,18,179,45,04,41,146,48,09,59,280,31*7D

$GPGSV,3,2,10,14,05,337,47,15,10,236,00,17,54,057,48,20,05,062,49*78

$GPGSV,3,3,10,28,27,098,51,32,02,035,45,,,,,,,,*76

$PGRME,9.3,M,9.5,M,13.3,M*19

$GPGLL,4736.760,N,12219.740,W,235454,A*34

$PGRMZ,334,f,3*1F

$PGRMM,WGS 84*06

$GPBOD,,T,,M,,*47

$GPRTE,1,1,c,0,GCJX2F*49

$GPWPL,4738.382,N,12219.774,W,GCJX2F*37

$GPRMC,235455,A,4736.759,N,12219.740,W,000.0,360.0,070712,019.5,E*68

$GPRMB,A,,,,,,,,,,,,V*71

$GPGGA,235455,4736.759,N,12219.740,W,1,05,2.2,100.3,M,-18.4,M,,*70

$GPGSA,A,3,01,02,04,,,,17,,28,,,,2.9,2.2,1.9*3A

$GPGSV,3,1,10,01,03,030,44,02,18,179,45,04,41,146,48,09,59,280,32*7E

$GPGSV,3,2,10,14,05,337,47,15,10,236,00,17,54,057,49,20,05,062,49*79

$GPGSV,3,3,10,28,27,098,51,32,02,035,44,,,,,,,,*77

$PGRME,9.3,M,9.5,M,13.3,M*19

$GPGLL,4736.759,N,12219.740,W,235456,A*3C

$PGRMZ,325,f,3*1F

$PGRMM,WGS 84*06

$GPBOD,,T,,M,,*47

$GPRTE,1,1,c,0,GCJX2F*49

$GPWPL,4738.382,N,12219.774,W,GCJX2F*37

$GPRMC,235457,A,4736.759,N,12219.740,W,000.0,360.0,070712,019.5,E*6A

$GPRMB,A,,,,,,,,,,,,V*71

$GPGGA,235457,4736.759,N,12219.740,W,1,05,2.2,100.0,M,-18.4,M,,*71

$GPGSA,A,3,01,02,04,,14,,17,20,28,32,,,2.9,2.2,1.9*3C

$GPGSV,3,1,10,01,03,030,43,02,18,179,45,04,41,146,48,09,59,280,33*78

$GPGSV,3,2,10,14,05,337,47,15,10,236,00,17,54,057,50,20,05,062,49*71

$GPGSV,3,3,10,28,27,098,51,32,02,035,44,,,,,,,,*77

$PGRME,4.5,M,6.5,M,7.9,M*22

$GPGLL,4736.759,N,12219.740,W,235458,A*32

$PGRMZ,331,f,3*1A

$PGRMM,WGS 84*06

$GPBOD,,T,,M,,*47

$GPRTE,1,1,c,0,GCJX2F*49

$GPWPL,4738.382,N,12219.774,W,GCJX2F*37

$GPRMC,235459,A,4736.759,N,12219.740,W,000.0,360.0,070712,019.5,E*64

$GPRMB,A,,,,,,,,,,,,V*71

$GPGGA,235459,4736.759,N,12219.740,W,1,08,1.1,101.4,M,-18.4,M,,*77

$GPGSA,A,3,01,02,04,,14,,17,20,28,32,,,1.9,1.1,1.6*30

$GPGSV,3,1,10,01,03,030,44,02,18,179,45,04,41,146,47,09,60,278,34*7A

$GPGSV,3,2,10,14,05,337,47,15,10,236,00,17,54,057,51,20,05,062,48*71

$GPGSV,3,3,10,28,27,098,51,32,02,035,44,,,,,,,,*77

$PGRME,4.5,M,6.5,M,7.9,M*22

$GPGLL,4736.759,N,12219.739,W,235500,A*30

$PGRMZ,334,f,3*1F

$PGRMM,WGS 84*06

$GPBOD,,T,,M,,*47

$GPRTE,1,1,c,0,GCJX2F*49

$GPWPL,4738.382,N,12219.774,W,GCJX2F*37

$GPRMC,235501,A,4736.759,N,12219.739,W,000.0,360.0,070712,019.5,E*66

$GPRMB,A,,,,,,,,,,,,V*71

$GPGGA,235501,4736.759,N,12219.739,W,1,08,1.1,102.4,M,-18.4,M,,*76

$GPGSA,A,3,01,02,04,,14,,17,20,28,32,,,1.9,1.1,1.6*30

$GPGSV,3,1,10,01,03,030,44,02,18,179,45,04,41,146,47,09,60,278,36*78

$GPGSV,3,2,10,14,05,337,47,15,10,236,00,17,54,057,52,20,05,062,48*72

$GPGSV,3,3,10,28,27,098,51,32,02,035,45,,,,,,,,*76

$PGRME,4.5,M,6.5,M,7.9,M*22

$GPGLL,4736.758,N,12219.739,W,235502,A*33

$PGRMZ,338,f,3*13

$PGRMM,WGS 84*06

$GPBOD,,T,,M,,*47

$GPRTE,1,1,c,0,GCJX2F*49

$GPWPL,4738.382,N,12219.774,W,GCJX2F*37

$GPRMC,235503,A,4736.758,N,12219.739,W,000.0,360.0,070712,019.5,E*65

$GPRMB,A,,,,,,,,,,,,V*71

$GPGGA,235503,4736.758,N,12219.739,W,1,08,1.1,103.4,M,-18.4,M,,*74

$GPGSA,A,3,01,02,04,,14,,17,20,28,32,,,1.9,1.1,1.6*30

$GPGSV,3,1,10,01,03,030,44,02,18,179,45,04,41,146,46,09,60,278,37*78

$GPGSV,3,2,10,14,05,337,47,15,10,236,00,17,54,057,52,20,05,062,48*72

$GPGSV,3,3,10,28,27,098,51,32,02,035,44,,,,,,,,*77

$PGRME,4.5,M,6.5,M,7.9,M*22

$GPGLL,4736.758,N,12219.739,W,235504,A*35

$PGRMZ,340,f,3*1C

$PGRMM,WGS 84*06

$GPBOD,,T,,M,,*47

$GPRTE,1,1,c,0,GCJX2F*49

$GPWPL,4738.382,N,12219.774,W,GCJX2F*37

$GPRMC,235505,A,4736.758,N,12219.739,W,000.0,360.0,070712,019.5,E*63

$GPRMB,A,,,,,,,,,,,,V*71

$GPGGA,235505,4736.758,N,12219.739,W,1,08,1.1,104.2,M,-18.4,M,,*73

$GPGSA,A,3,01,02,04,,14,,17,20,28,32,,,1.9,1.1,1.6*30

$GPGSV,3,1,10,01,03,030,44,02,18,179,46,04,41,146,46,09,60,278,37*7B

$GPGSV,3,2,10,14,05,337,47,15,10,236,00,17,54,057,52,20,05,062,48*72

$GPGSV,3,3,10,28,27,098,51,32,02,035,44,,,,,,,,*77

$PGRME,4.5,M,6.5,M,7.9,M*22

$GPGLL,4736.758,N,12219.739,W,235506,A*37

$PGRMZ,343,f,3*1F

$PGRMM,WGS 84*06

$GPBOD,,T,,M,,*47

$GPRTE,1,1,c,0,GCJX2F*49

$GPWPL,4738.382,N,12219.774,W,GCJX2F*37

$GPRMC,235507,A,4736.758,N,12219.739,W,000.0,360.0,070712,019.5,E*61

$GPRMB,A,,,,,,,,,,,,V*71

$GPGGA,235507,4736.758,N,12219.739,W,1,08,1.1,105.0,M,-18.4,M,,*72

$GPGSA,A,3,01,02,04,,14,,17,20,28,32,,,1.9,1.1,1.6*30

$GPGSV,3,1,10,01,03,030,44,02,18,179,46,04,41,146,46,09,60,278,37*7B

$GPGSV,3,2,10,14,05,337,47,15,10,236,00,17,54,057,52,20,05,062,48*72

$GPGSV,3,3,10,28,27,098,51,32,02,035,44,,,,,,,,*77

$PGRME,4.5,M,6.5,M,7.9,M*22

$GPGLL,4736.758,N,12219.739,W,235508,A*39

$PGRMZ,344,f,3*18

$PGRMM,WGS 84*06

$GPBOD,,T,,M,,*47

$GPRTE,1,1,c,0,GCJX2F*49

$GPWPL,4738.382,N,12219.774,W,GCJX2F*37

$GPRMC,235509,A,4736.758,N,12219.739,W,000.0,360.0,070712,019.5,E*6F

$GPRMB,A,,,,,,,,,,,,V*71

$GPGGA,235509,4736.758,N,12219.739,W,1,08,1.1,105.4,M,-18.4,M,,*78

$GPGSA,A,3,01,02,04,,14,,17,20,28,32,,,1.9,1.1,1.6*30

$GPGSV,3,1,10,01,03,030,44,02,18,179,46,04,41,146,47,09,60,278,37*7A

$GPGSV,3,2,10,14,05,337,47,15,10,236,00,17,54,057,52,20,05,062,48*72

$GPGSV,3,3,10,28,27,098,51,32,02,035,44,,,,,,,,*77

$PGRME,4.5,M,6.5,M,7.9,M*22

$GPGLL,4736.757,N,12219.739,W,235510,A*3F

$PGRMZ,346,f,3*1A

$PGRMM,WGS 84*06

$GPBOD,,T,,M,,*47

$GPRTE,1,1,c,0,GCJX2F*49

$GPWPL,4738.382,N,12219.774,W,GCJX2F*37

$GPRMC,235511,A,4736.757,N,12219.739,W,000.0,360.0,070712,019.5,E*69

$GPRMB,A,,,,,,,,,,,,V*71

$GPGGA,235511,4736.757,N,12219.739,W,1,08,1.1,105.7,M,-18.4,M,,*7D

$GPGSA,A,3,01,02,04,,,14,,17,20,28,32,,1.9,1.1,1.6*30

$GPGSV,3,1,11,01,03,030,44,02,18,179,46,04,41,146,47,09,60,278,36*7A

$GPGSV,3,2,11,12,27,291,00,14,05,337,47,15,10,236,00,17,54,057,51*73

$GPGSV,3,3,11,20,05,062,48,28,27,098,51,32,02,035,44,,,,*49

$PGRME,4.5,M,6.5,M,7.9,M*22

$GPGLL,4736.757,N,12219.739,W,235512,A*3D

$PGRMZ,347,f,3*1B

$PGRMM,WGS 84*06

$GPBOD,,T,,M,,*47

$GPRTE,1,1,c,0,GCJX2F*49

$GPWPL,4738.382,N,12219.774,W,GCJX2F*37

$GPRMC,235513,A,4736.757,N,12219.739,W,000.0,360.0,070712,019.5,E*6B

$GPRMB,A,,,,,,,,,,,,V*71

$GPGGA,235513,4736.757,N,12219.739,W,1,08,1.1,106.3,M,-18.4,M,,*78

$GPGSA,A,3,01,02,04,,,14,,17,20,28,32,,1.9,1.1,1.6*30

$GPGSV,3,1,11,01,03,030,44,02,18,179,46,04,41,146,48,09,60,278,34*77

$GPGSV,3,2,11,12,27,291,00,14,05,337,46,15,10,236,00,17,54,057,49*7B

$GPGSV,3,3,11,20,05,062,48,28,27,098,51,32,02,035,43,,,,*4E

$PGRME,4.5,M,6.5,M,7.9,M*22

$GPGLL,4736.757,N,12219.739,W,235514,A*3B

$PGRMZ,351,f,3*1C

$PGRMM,WGS 84*06

$GPBOD,,T,,M,,*47

$GPRTE,1,1,c,0,GCJX2F*49

$GPWPL,4738.382,N,12219.774,W,GCJX2F*37

$GPRMC,235515,A,4736.757,N,12219.739,W,000.0,360.0,070712,019.5,E*6D

$GPRMB,A,,,,,,,,,,,,V*71

$GPGGA,235515,4736.757,N,12219.739,W,1,08,1.1,107.6,M,-18.4,M,,*7A

$GPGSA,A,3,01,02,04,,,14,,17,20,28,32,,1.9,1.1,1.6*30

$GPGSV,3,1,11,01,03,030,44,02,18,179,46,04,41,146,48,09,60,278,32*71

$GPGSV,3,2,11,12,27,291,00,14,05,337,46,15,10,236,00,17,54,057,48*7A

$GPGSV,3,3,11,20,05,062,48,28,27,098,51,32,02,035,43,,,,*4E

$PGRME,4.5,M,6.5,M,7.9,M*22

$GPGLL,4736.757,N,12219.739,W,235516,A*39

$PGRMZ,356,f,3*1B

$PGRMM,WGS 84*06

$GPBOD,,T,,M,,*47

$GPRTE,1,1,c,0,GCJX2F*49

$GPWPL,4738.382,N,12219.774,W,GCJX2F*37

$GPRMC,235517,A,4736.757,N,12219.739,W,000.0,360.0,070712,019.5,E*6F

$GPRMB,A,,,,,,,,,,,,V*71

$GPGGA,235518,4736.757,N,12219.739,W,1,08,1.1,109.7,M,-18.4,M,,*78

$GPGSA,A,3,01,02,04,,,14,,17,20,28,32,,1.9,1.1,1.6*30

$GPGSV,3,1,11,01,03,030,43,02,18,179,45,04,41,146,48,09,60,278,32*75

$GPGSV,3,2,11,12,27,291,00,14,05,337,46,15,10,236,00,17,54,057,30*75

$GPGSV,3,3,11,20,05,062,48,28,27,098,51,32,02,035,43,,,,*4E

$PGRME,4.5,M,6.5,M,7.9,M*22

$GPGLL,4736.757,N,12219.739,W,235518,A*37

$PGRMZ,363,f,3*1D

$PGRMM,WGS 84*06

$GPBOD,,T,,M,,*47

$GPRTE,1,1,c,0,GCJX2F*49

$GPWPL,4738.382,N,12219.774,W,GCJX2F*37

$GPRMC,235519,A,4736.758,N,12219.740,W,000.0,360.0,070712,019.5,E*60

$GPRMB,A,,,,,,,,,,,,V*71

$GPGGA,235520,4736.758,N,12219.740,W,1,08,1.1,113.1,M,-18.4,M,,*7F

$GPGSA,A,3,01,02,04,,,14,17,20,28,32,,,2.1,1.1,1.7*3A

$GPGSV,3,1,10,01,03,030,43,02,18,179,45,04,41,146,47,09,60,278,34*7D

$GPGSV,3,2,10,12,27,291,00,14,05,337,46,17,54,057,35,20,05,062,48*7C

$GPGSV,3,3,10,28,27,098,51,32,02,035,43,,,,,,,,*70

$PGRME,4.5,M,6.6,M,7.9,M*21

$GPGLL,4736.758,N,12219.740,W,235520,A*3D

$PGRMZ,380,f,3*10

$PGRMM,WGS 84*06

$GPBOD,,T,,M,,*47

$GPRTE,1,1,c,0,GCJX2F*49

$GPWPL,4738.382,N,12219.774,W,GCJX2F*37

$GPRMC,235521,A,4736.758,N,12219.740,W,000.0,360.0,070712,019.5,E*6B

$GPRMB,A,,,,,,,,,,,,V*71

$GPGGA,235522,4736.758,N,12219.740,W,1,08,1.1,200.1,M,-18.4,M,,*7C

$GPGSA,A,3,01,02,04,,,14,17,20,28,32,,,1.9,1.1,1.6*30

$GPGSV,3,1,10,01,03,030,42,02,18,179,45,04,41,146,47,09,60,278,35*7D

$GPGSV,3,2,10,12,27,291,00,14,05,337,47,17,54,057,40,20,05,062,48*7F

$GPGSV,3,3,10,28,27,098,51,32,02,035,43,,,,,,,,*70

$PGRME,4.5,M,6.6,M,7.9,M*21

$GPGLL,4736.758,N,12219.740,W,235522,A*3F

$PGRMZ,625,f,3*1A

$PGRMM,WGS 84*06

$GPBOD,,T,,M,,*47

$GPRTE,1,1,c,0,GCJX2F*49

$GPWPL,4738.382,N,12219.774,W,GCJX2F*37

$GPRMC,235523,A,4736.759,N,12219.740,W,000.0,360.0,070712,019.5,E*68

$GPRMB,A,,,,,,,,,,,,V*71

$GPGGA,235524,4736.759,N,12219.740,W,1,08,1.1,179.5,M,-18.4,M,,*72

$GPGSA,A,3,01,02,04,,,14,,17,20,28,32,,1.9,1.1,1.6*30

$GPGSV,3,1,11,01,03,030,42,02,18,179,45,04,41,146,47,09,60,278,36*7F

$GPGSV,3,2,11,12,27,291,00,14,05,337,47,15,10,236,00,17,54,057,44*77

$GPGSV,3,3,11,20,05,062,47,28,27,098,51,32,02,035,42,,,,*40

$PGRME,4.5,M,6.6,M,7.9,M*21

$GPGLL,4736.759,N,12219.741,W,235524,A*39

$PGRMZ,557,f,3*1C

$PGRMM,WGS 84*06

$GPBOD,,T,,M,,*47

$GPRTE,1,1,c,0,GCJX2F*49

$GPWPL,4738.382,N,12219.774,W,GCJX2F*37

$GPRMC,235525,A,4736.759,N,12219.741,W,000.0,360.0,070712,019.5,E*6F

$GPRMB,A,,,,,,,,,,,,V*71

$GPGGA,235526,4736.759,N,12219.741,W,1,08,1.1,160.7,M,-18.4,M,,*7B

$GPGSA,A,3,01,02,04,,,14,,17,20,28,32,,1.9,1.1,1.6*30

$GPGSV,3,1,11,01,03,030,42,02,18,179,45,04,41,146,47,09,60,278,36*7F

$GPGSV,3,2,11,12,27,291,00,14,05,337,47,15,10,236,00,17,54,057,46*75

$GPGSV,3,3,11,20,05,062,47,28,27,098,51,32,02,035,42,,,,*40

$PGRME,4.5,M,6.6,M,7.9,M*21

$GPGLL,4736.759,N,12219.741,W,235526,A*3B

$PGRMZ,500,f,3*1E

$PGRMM,WGS 84*06

$GPBOD,,T,,M,,*47

$GPRTE,1,1,c,0,GCJX2F*49

$GPWPL,4738.382,N,12219.774,W,GCJX2F*37

$GPRMC,235527,A,4736.759,N,12219.741,W,000.0,360.0,070712,019.5,E*6D

$GPRMB,A,,,,,,,,,,,,V*71

$GPGGA,235528,4736.759,N,12219.741,W,1,08,1.1,145.4,M,-18.4,M,,*71

$GPGSA,A,3,01,02,04,,,14,,17,20,28,32,,1.9,1.1,1.6*30

$GPGSV,3,1,11,01,03,030,42,02,18,179,45,04,41,146,48,09,60,278,37*71

$GPGSV,3,2,11,12,27,291,00,14,05,337,47,15,10,236,00,17,54,057,48*7B

$GPGSV,3,3,11,20,05,062,47,28,27,098,51,32,02,035,42,,,,*40

$PGRME,4.5,M,6.6,M,7.9,M*21

$GPGLL,4736.759,N,12219.741,W,235528,A*35

$PGRMZ,460,f,3*19

$PGRMM,WGS 84*06

$GPBOD,,T,,M,,*47

$GPRTE,1,1,c,0,GCJX2F*49

$GPWPL,4738.382,N,12219.774,W,GCJX2F*37

$GPRMC,235529,A,4736.759,N,12219.741,W,000.0,360.0,070712,019.5,E*63

$GPRMB,A,,,,,,,,,,,,V*71

$GPGGA,235530,4736.759,N,12219.741,W,1,08,1.1,135.7,M,-18.4,M,,*7C

$GPGSA,A,3,01,02,04,,,14,,17,20,28,32,,1.9,1.1,1.6*30

$GPGSV,3,1,11,01,03,030,42,02,18,179,45,04,41,146,48,09,60,278,38*7E

$GPGSV,3,2,11,12,27,291,00,14,05,337,47,15,10,236,00,17,54,057,50*72

$GPGSV,3,3,11,20,05,062,47,28,27,098,51,32,02,035,42,,,,*40

$PGRME,4.5,M,6.6,M,7.9,M*21

$GPGLL,4736.759,N,12219.741,W,235530,A*3C

$PGRMZ,445,f,3*1E

$PGRMM,WGS 84*06

$GPBOD,,T,,M,,*47

$GPRTE,1,1,c,0,GCJX2F*49

$GPWPL,4738.382,N,12219.774,W,GCJX2F*37

$GPRMC,235531,A,4736.758,N,12219.741,W,000.0,360.0,070712,019.5,E*6B

$GPRMB,A,,,,,,,,,,,,V*71

$GPGGA,235532,4736.758,N,12219.741,W,1,08,1.1,128.0,M,-18.4,M,,*74

$GPGSA,A,3,01,02,04,,,14,,17,20,28,32,,1.9,1.1,1.6*30

$GPGSV,3,1,11,01,03,030,43,02,18,179,45,04,41,146,48,09,60,278,38*7F

$GPGSV,3,2,11,12,27,291,00,14,05,337,47,15,10,236,00,17,53,057,51*74

$GPGSV,3,3,11,20,05,062,48,28,27,098,51,32,02,035,42,,,,*4F

$PGRME,4.5,M,6.6,M,7.9,M*21

$GPGLL,4736.758,N,12219.741,W,235532,A*3F

$PGRMZ,411,f,3*1F

$PGRMM,WGS 84*06

$GPBOD,,T,,M,,*47

$GPRTE,1,1,c,0,GCJX2F*49

$GPWPL,4738.382,N,12219.774,W,GCJX2F*37

$GPRMC,235533,A,4736.758,N,12219.741,W,000.0,360.0,070712,019.5,E*69

$GPRMB,A,,,,,,,,,,,,V*71

$GPGGA,235534,4736.758,N,12219.741,W,1,08,1.1,123.4,M,-18.4,M,,*7D

$GPGSA,A,3,01,02,04,,,14,,17,20,28,32,,1.9,1.1,1.6*30

$GPGSV,3,1,11,01,03,030,43,02,18,179,45,04,41,146,48,09,60,278,37*70

$GPGSV,3,2,11,12,27,291,00,14,05,337,47,15,10,236,00,17,53,057,52*77

$GPGSV,3,3,11,20,05,062,48,28,27,098,51,32,02,035,41,,,,*4C

$PGRME,4.5,M,6.6,M,7.9,M*21

$GPGLL,4736.758,N,12219.741,W,235534,A*39

$PGRMZ,400,f,3*1F

$PGRMM,WGS 84*06

$GPBOD,,T,,M,,*47

$GPRTE,1,1,c,0,GCJX2F*49

$GPWPL,4738.382,N,12219.774,W,GCJX2F*37

$GPRMC,235535,A,4736.758,N,12219.741,W,000.0,360.0,070712,019.5,E*6F

$GPRMB,A,,,,,,,,,,,,V*71

$GPGGA,235535,4736.758,N,12219.741,W,1,08,1.1,120.7,M,-18.4,M,,*7C

$GPGSA,A,3,01,02,04,,,14,,17,20,28,32,,1.9,1.1,1.6*30

$GPGSV,3,1,11,01,03,030,44,02,18,179,45,04,41,146,48,09,60,278,34*74

$GPGSV,3,2,11,12,27,291,00,14,05,337,47,15,10,236,00,17,53,057,52*77

$GPGSV,3,3,11,20,05,062,48,28,27,098,51,32,02,035,42,,,,*4F

$PGRME,4.5,M,6.6,M,7.9,M*21

$GPGLL,4736.758,N,12219.741,W,235536,A*3B

$PGRMZ,392,f,3*13

$PGRMM,WGS 84*06

$GPBOD,,T,,M,,*47

$GPRTE,1,1,c,0,GCJX2F*49

$GPWPL,4738.382,N,12219.774,W,GCJX2F*37

$GPRMC,235537,A,4736.758,N,12219.741,W,000.0,360.0,070712,019.5,E*6D

$GPRMB,A,,,,,,,,,,,,V*71

$GPGGA,235538,4736.758,N,12219.741,W,1,08,1.1,118.6,M,-18.4,M,,*7B

$GPGSA,A,3,01,02,04,,,14,,17,20,28,32,,1.9,1.1,1.6*30

$GPGSV,3,1,11,01,03,030,44,02,18,179,46,04,41,146,47,09,60,278,34*78

$GPGSV,3,2,11,12,27,291,00,14,05,337,47,15,10,236,00,17,53,057,53*76

$GPGSV,3,3,11,20,05,062,48,28,27,098,50,32,02,035,41,,,,*4D

$PGRME,4.5,M,6.6,M,7.9,M*21

$GPGLL,4736.758,N,12219.741,W,235538,A*35

$PGRMZ,387,f,3*17

$PGRMM,WGS 84*06

$GPBOD,,T,,M,,*47

$GPRTE,1,1,c,0,GCJX2F*49

$GPWPL,4738.382,N,12219.774,W,GCJX2F*37

$GPRMC,235539,A,4736.758,N,12219.741,W,000.0,360.0,070712,019.5,E*63

$GPRMB,A,,,,,,,,,,,,V*71

$GPGGA,235539,4736.758,N,12219.741,W,1,08,1.1,117.5,M,-18.4,M,,*76

$GPGSA,A,3,01,02,04,,,14,,17,20,28,32,,1.9,1.1,1.6*30

$GPGSV,3,1,11,01,03,030,44,02,18,179,45,04,41,146,46,09,60,278,33*7D

$GPGSV,3,2,11,12,27,291,00,14,05,337,47,15,10,236,00,17,53,057,53*76

$GPGSV,3,3,11,20,05,062,47,28,27,098,51,32,02,035,41,,,,*43

$PGRME,4.5,M,6.6,M,7.9,M*21

$GPGLL,4736.758,N,12219.741,W,235540,A*3A

$PGRMZ,386,f,3*16

$PGRMM,WGS 84*06

$GPBOD,,T,,M,,*47

$GPRTE,1,1,c,0,GCJX2F*49

$GPWPL,4738.382,N,12219.774,W,GCJX2F*37

$GPRMC,235541,A,4736.758,N,12219.740,W,000.0,360.0,070712,019.5,E*6D

$GPRMB,A,,,,,,,,,,,,V*71

$GPGGA,235541,4736.758,N,12219.740,W,1,08,1.1,117.0,M,-18.4,M,,*7D

$GPGSA,A,3,01,02,04,,,14,,17,20,28,32,,1.9,1.1,1.6*30

$GPGSV,3,1,11,01,03,030,44,02,18,179,45,04,41,146,46,09,60,278,32*7C

$GPGSV,3,2,11,12,27,291,00,14,05,337,47,15,10,236,00,17,53,057,53*76

$GPGSV,3,3,11,20,05,062,47,28,27,098,51,32,02,035,41,,,,*43

$PGRME,4.5,M,6.6,M,7.9,M*21

$GPGLL,4736.757,N,12219.740,W,235542,A*36

$PGRMZ,384,f,3*14

$PGRMM,WGS 84*06

$GPBOD,,T,,M,,*47

$GPRTE,1,1,c,0,GCJX2F*49

$GPWPL,4738.382,N,12219.774,W,GCJX2F*37

$GPRMC,235543,A,4736.757,N,12219.740,W,000.0,360.0,070712,019.5,E*60

$GPRMB,A,,,,,,,,,,,,V*71

$GPGGA,235544,4736.757,N,12219.740,W,1,08,1.1,117.0,M,-18.4,M,,*77

$GPGSA,A,3,01,02,04,,,14,,17,20,28,32,,1.9,1.1,1.6*30

$GPGSV,3,1,11,01,03,030,44,02,18,179,46,04,41,146,45,09,60,278,31*7F

$GPGSV,3,2,11,12,27,291,00,14,05,337,47,15,10,236,00,17,53,057,53*76

$GPGSV,3,3,11,20,06,061,47,28,27,098,52,32,02,035,41,,,,*40

$PGRME,4.5,M,6.6,M,7.9,M*21

$GPGLL,4736.757,N,12219.740,W,235544,A*30

$PGRMZ,384,f,3*14

$PGRMM,WGS 84*06

$GPBOD,,T,,M,,*47

$GPRTE,1,1,c,0,GCJX2F*49

$GPWPL,4738.382,N,12219.774,W,GCJX2F*37

$GPRMC,235545,A,4736.757,N,12219.740,W,000.0,360.0,070712,019.5,E*66

$GPRMB,A,,,,,,,,,,,,V*71

$GPGGA,235546,4736.757,N,12219.740,W,1,08,1.1,117.0,M,-18.4,M,,*75

$GPGSA,A,3,01,02,04,,,14,,17,20,28,32,,1.9,1.1,1.6*30

$GPGSV,3,1,11,01,03,030,44,02,18,179,46,04,41,146,45,09,60,278,32*7C

$GPGSV,3,2,11,12,27,291,00,14,05,337,47,15,10,236,00,17,53,057,52*77

$GPGSV,3,3,11,20,06,061,47,28,27,098,52,32,02,035,42,,,,*43

$PGRME,4.5,M,6.6,M,7.9,M*21

$GPGLL,4736.757,N,12219.740,W,235546,A*32

$PGRMZ,384,f,3*14

$PGRMM,WGS 84*06

$GPBOD,,T,,M,,*47

$GPRTE,1,1,c,0,GCJX2F*49

$GPWPL,4738.382,N,12219.774,W,GCJX2F*37

$GPRMC,235547,A,4736.757,N,12219.740,W,000.0,360.0,070712,019.5,E*64

$GPRMB,A,,,,,,,,,,,,V*71

$GPGGA,235548,4736.757,N,12219.740,W,1,08,1.1,117.3,M,-18.4,M,,*78

$GPGSA,A,3,01,02,04,,,14,,17,20,28,32,,1.9,1.1,1.6*30

$GPGSV,3,1,11,01,03,030,44,02,18,179,46,04,41,146,46,09,60,278,34*79

$GPGSV,3,2,11,12,27,291,00,14,05,337,47,15,10,236,00,17,53,057,51*74

$GPGSV,3,3,11,20,06,061,48,28,27,098,52,32,02,035,43,,,,*4D

$PGRME,4.5,M,6.6,M,7.9,M*21

$GPGLL,4736.757,N,12219.740,W,235548,A*3C

$PGRMZ,386,f,3*16

$PGRMM,WGS 84*06

$GPBOD,,T,,M,,*47

$GPRTE,1,1,c,0,GCJX2F*49

$GPWPL,4738.382,N,12219.774,W,GCJX2F*37

$GPRMC,235549,A,4736.757,N,12219.740,W,000.0,360.0,070712,019.5,E*6A

$GPRMB,A,,,,,,,,,,,,V*71

$GPGGA,235550,4736.757,N,12219.740,W,1,08,1.1,118.1,M,-18.4,M,,*7C

$GPGSA,A,3,01,02,04,,,14,,17,20,28,32,,1.9,1.1,1.6*30

$GPGSV,3,1,11,01,03,030,44,02,18,179,46,04,41,146,45,09,60,278,35*7B

$GPGSV,3,2,11,12,27,291,00,14,05,337,46,15,10,236,00,17,53,057,51*75

$GPGSV,3,3,11,20,06,061,48,28,27,098,53,32,02,035,43,,,,*4C

$PGRME,4.5,M,6.6,M,7.9,M*21

$GPGLL,4736.757,N,12219.740,W,235550,A*35

$PGRMZ,389,f,3*19

$PGRMM,WGS 84*06

$GPBOD,,T,,M,,*47

$GPRTE,1,1,c,0,GCJX2F*49

$GPWPL,4738.382,N,12219.774,W,GCJX2F*37

$GPRMC,235551,A,4736.757,N,12219.740,W,000.0,360.0,070712,019.5,E*63

$GPRMB,A,,,,,,,,,,,,V*71

$GPGGA,235552,4736.757,N,12219.740,W,1,08,1.1,119.2,M,-18.4,M,,*7C

$GPGSA,A,3,01,02,04,,,14,,17,20,28,32,,1.9,1.1,1.6*30

$GPGSV,3,1,11,01,03,030,44,02,18,179,46,04,41,146,45,09,60,278,35*7B

$GPGSV,3,2,11,12,27,291,00,14,05,337,46,15,10,236,00,17,53,057,49*7C

$GPGSV,3,3,11,20,06,061,48,28,27,098,53,32,02,035,43,,,,*4C

$PGRME,4.5,M,6.6,M,7.9,M*21

$GPGLL,4736.757,N,12219.740,W,235552,A*37

$PGRMZ,394,f,3*15

$PGRMM,WGS 84*06

$GPBOD,,T,,M,,*47

$GPRTE,1,1,c,0,GCJX2F*49

$GPWPL,4738.382,N,12219.774,W,GCJX2F*37

$GPRMC,235553,A,4736.757,N,12219.740,W,000.0,360.0,070712,019.5,E*61

$GPRMB,A,,,,,,,,,,,,V*71

$GPGGA,235554,4736.757,N,12219.740,W,1,08,1.1,121.0,M,-18.4,M,,*73

$GPGSA,A,3,01,02,04,,,14,,17,20,28,32,,1.9,1.1,1.6*30

$GPGSV,3,1,11,01,03,030,44,02,18,179,46,04,41,146,46,09,60,278,34*79

$GPGSV,3,2,11,12,27,291,00,14,05,337,46,15,10,236,00,17,53,057,48*7D

$GPGSV,3,3,11,20,06,061,47,28,27,098,53,32,02,035,43,,,,*43

$PGRME,4.5,M,6.6,M,7.9,M*21

$GPGLL,4736.757,N,12219.740,W,235554,A*31

$PGRMZ,401,f,3*1E

$PGRMM,WGS 84*06

$GPBOD,,T,,M,,*47

$GPRTE,1,1,c,0,GCJX2F*49

$GPWPL,4738.382,N,12219.774,W,GCJX2F*37

$GPRMC,235555,A,4736.758,N,12219.740,W,000.0,360.0,070712,019.5,E*68

$GPRMB,A,,,,,,,,,,,,V*71

$GPGGA,235556,4736.758,N,12219.740,W,1,08,1.1,123.8,M,-18.4,M,,*74

$GPGSA,A,3,01,02,04,,,14,,17,20,28,32,,1.9,1.1,1.6*30

$GPGSV,3,1,11,01,03,030,44,02,18,179,46,04,41,146,46,09,60,278,33*7E

$GPGSV,3,2,11,12,27,291,00,14,05,337,46,15,10,236,00,17,53,057,47*72

$GPGSV,3,3,11,20,06,061,47,28,27,098,53,32,02,035,44,,,,*44

$PGRME,4.5,M,6.6,M,7.9,M*21

$GPGLL,4736.758,N,12219.740,W,235556,A*3C

$PGRMZ,576,f,3*1F

$PGRMM,WGS 84*06

$GPBOD,,T,,M,,*47

$GPRTE,1,1,c,0,GCJX2F*49

$GPWPL,4738.382,N,12219.774,W,GCJX2F*37

$GPRMC,235557,A,4736.758,N,12219.740,W,000.0,360.0,070712,019.5,E*6A

$GPRMB,A,,,,,,,,,,,,V*71

$GPGGA,235558,4736.758,N,12219.740,W,1,08,1.1,175.2,M,-18.4,M,,*73

$GPGSA,A,3,01,02,04,,,14,,17,20,28,32,,1.9,1.1,1.6*30

$GPGSV,3,1,11,01,03,030,44,02,18,179,46,04,41,146,47,09,60,278,31*7D

$GPGSV,3,2,11,12,27,291,00,14,05,337,46,15,10,236,00,17,53,057,47*72

$GPGSV,3,3,11,20,06,061,46,28,27,098,54,32,02,035,44,,,,*42

$PGRME,4.5,M,6.6,M,7.9,M*21

$GPGLL,4736.758,N,12219.740,W,235558,A*32

$PGRMZ,569,f,3*11

$PGRMM,WGS 84*06

$GPBOD,,T,,M,,*47

$GPRTE,1,1,c,0,GCJX2F*49

$GPWPL,4738.382,N,12219.774,W,GCJX2F*37

$GPRMC,235559,A,4736.758,N,12219.739,W,000.0,360.0,070712,019.5,E*6A

$GPRMB,A,,,,,,,,,,,,V*71

$GPGGA,235600,4736.758,N,12219.739,W,1,08,1.1,171.8,M,-18.4,M,,*7D

$GPGSA,A,3,01,02,04,,,14,,17,20,28,32,,1.9,1.1,1.6*30

$GPGSV,3,1,11,01,03,030,45,02,18,179,46,04,41,146,47,09,60,278,31*7C

$GPGSV,3,2,11,12,27,291,00,14,05,337,47,15,10,236,00,17,53,057,47*73

$GPGSV,3,3,11,20,06,061,46,28,27,098,54,32,02,035,43,,,,*45

$PGRME,4.5,M,6.6,M,7.9,M*21

$GPGLL,4736.759,N,12219.739,W,235600,A*33

$PGRMZ,558,f,3*13

$PGRMM,WGS 84*06

$GPBOD,,T,,M,,*47

$GPRTE,1,1,c,0,GCJX2F*49

$GPWPL,4738.382,N,12219.774,W,GCJX2F*37

$GPRMC,235601,A,4736.759,N,12219.739,W,000.0,360.0,070712,019.5,E*65

$GPRMB,A,,,,,,,,,,,,V*71

$GPGGA,235601,4736.759,N,12219.739,W,1,08,1.1,166.7,M,-18.4,M,,*74

$GPGSA,A,3,01,02,04,,,14,,17,20,28,32,,1.9,1.1,1.6*30

$GPGSV,3,1,11,01,03,030,45,02,18,179,46,04,41,146,48,09,60,278,31*73

$GPGSV,3,2,11,12,27,291,00,14,05,337,47,15,10,236,00,17,53,057,48*7C

$GPGSV,3,3,11,20,06,061,46,28,27,098,53,32,02,035,44,,,,*45

$PGRME,4.5,M,6.6,M,7.9,M*21

$GPGLL,4736.759,N,12219.739,W,235602,A*31

$PGRMZ,547,f,3*1D

$PGRMM,WGS 84*06

$GPBOD,,T,,M,,*47

$GPRTE,1,1,c,0,GCJX2F*49

$GPWPL,4738.382,N,12219.774,W,GCJX2F*37

$GPRMC,235602,A,4736.759,N,12219.739,W,000.0,360.0,070712,019.5,E*66

$GPRMB,A,,,,,,,,,,,,V*71

$GPGGA,235602,4736.759,N,12219.739,W,1,08,1.1,166.7,M,-18.4,M,,*77

$GPGSA,A,3,01,02,04,,,14,,17,20,28,32,,1.9,1.1,1.6*30

$GPGSV,3,1,11,01,03,030,43,02,18,179,45,04,41,146,30,09,60,278,30*78

$GPGSV,3,2,11,12,27,291,00,14,05,337,45,15,10,236,00,17,53,057,30*71

$GPGSV,3,3,11,20,06,061,44,28,27,098,30,32,02,035,41,,,,*47

$PGRME,4.5,M,6.6,M,7.9,M*21

$GPGLL,4736.759,N,12219.739,W,235604,A*37

$PGRMZ,528,f,3*14

$PGRMM,WGS 84*06

$GPBOD,,T,,M,,*47

$GPRTE,1,1,c,0,GCJX2F*49

$GPWPL,4738.382,N,12219.774,W,GCJX2F*37

$GPRMC,235604,A,4736.759,N,12219.739,W,000.0,360.0,070712,019.5,E*60

$GPRMB,A,,,,,,,,,,,,V*71

$GPGGA,235606,4736.759,N,12219.739,W,1,08,1.3,149.4,M,-18.4,M,,*7F

$GPGSA,A,3,01,02,04,,,14,,17,20,28,32,,2.3,1.3,1.9*34

$GPGSV,3,1,11,01,03,030,42,02,18,179,44,04,41,146,34,09,60,278,30*7C

$GPGSV,3,2,11,12,27,291,00,14,05,337,43,15,10,236,00,17,53,057,30*77

$GPGSV,3,3,11,20,06,061,43,28,27,098,30,32,02,035,38,,,,*4E

$PGRME,6.2,M,7.0,M,9.9,M*2D

$GPGLL,4736.759,N,12219.739,W,235606,A*35

$PGRMZ,473,f,3*1B

$PGRMM,WGS 84*06

$GPBOD,,T,,M,,*47

$GPRTE,1,1,c,0,GCJX2F*49

$GPWPL,4738.382,N,12219.774,W,GCJX2F*37

$GPRMC,235607,A,4736.759,N,12219.740,W,000.0,360.0,070712,019.5,E*6D

$GPRMB,A,,,,,,,,,,,,V*71

$GPGGA,235609,4736.759,N,12219.740,W,1,08,1.9,144.3,M,-18.4,M,,*7E

$GPGSA,A,3,01,02,04,,,14,,17,20,28,32,,2.9,1.9,1.9*34

$GPGSV,3,1,11,01,03,030,39,02,18,179,44,04,41,146,39,09,60,278,30*7D

$GPGSV,3,2,11,12,27,291,00,14,05,337,40,15,10,236,00,17,53,057,30*74

$GPGSV,3,3,11,20,06,061,40,28,27,098,43,32,02,035,35,,,,*44

$PGRME,7.4,M,7.9,M,11.3,M*10

$GPGLL,4736.759,N,12219.739,W,235609,A*3A

$PGRMZ,473,f,3*1B

$PGRMM,WGS 84*06

$GPBOD,,T,,M,,*47

$GPRTE,1,1,c,0,GCJX2F*49

$GPWPL,4738.382,N,12219.774,W,GCJX2F*37

$GPRMC,235610,A,4736.758,N,12219.739,W,000.0,360.0,070712,019.5,E*64

$GPRMB,A,,,,,,,,,,,,V*71

$GPGGA,235610,4736.758,N,12219.739,W,1,08,1.9,137.0,M,-18.4,M,,*7E

$GPGSA,A,3,01,02,04,,,14,,17,20,,28,32,2.9,1.9,1.9*34

$GPGSV,3,1,12,01,03,030,39,02,18,179,42,04,41,146,42,09,60,278,30*74

$GPGSV,3,2,12,12,27,291,00,14,05,337,38,15,10,236,00,17,53,057,34*7C

$GPGSV,3,3,12,20,06,061,39,27,64,247,00,28,27,098,45,32,02,035,38*74

$PGRME,7.9,M,7.1,M,11.5,M*13

$GPGLL,4736.758,N,12219.739,W,235610,A*33

$PGRMZ,439,f,3*15

$PGRMM,WGS 84*06

$GPBOD,,T,,M,,*47

$GPRTE,1,1,c,0,GCJX2F*49

$GPWPL,4738.382,N,12219.774,W,GCJX2F*37

$GPRMC,235612,A,4736.758,N,12219.739,W,000.0,360.0,070712,019.5,E*66

$GPRMB,A,,,,,,,,,,,,V*71

$GPGGA,235612,4736.758,N,12219.739,W,1,08,2.0,133.6,M,-18.4,M,,*74

$GPGSA,A,3,01,02,04,,,,,17,20,,28,32,3.0,2.0,2.0*39

$GPGSV,3,1,12,01,03,030,39,02,18,179,43,04,41,146,46,09,60,278,30*71

$GPGSV,3,2,12,12,27,291,00,14,05,337,36,15,10,236,00,17,53,057,44*75

$GPGSV,3,3,12,20,06,061,38,27,64,247,00,28,27,098,44,32,02,035,38*74

$PGRME,8.4,M,6.7,M,11.0,M*13

$GPGLL,4736.758,N,12219.739,W,235613,A*30

$PGRMZ,447,f,3*1C

$PGRMM,WGS 84*06

$GPBOD,,T,,M,,*47

$GPRTE,1,1,c,0,GCJX2F*49

$GPWPL,4738.382,N,12219.774,W,GCJX2F*37

$GPRMC,235615,A,4736.759,N,12219.740,W,000.0,360.0,070712,019.5,E*6E

$GPRMB,A,,,,,,,,,,,,V*71

$GPGGA,235615,4736.759,N,12219.740,W,1,07,1.9,137.2,M,-18.4,M,,*79

$GPGSA,A,3,01,02,04,,,14,,17,20,,28,32,2.4,1.9,1.6*36

$GPGSV,3,1,12,01,03,030,40,02,18,179,44,04,41,146,47,09,60,278,30*79

$GPGSV,3,2,12,12,27,291,00,14,05,337,36,15,10,236,00,17,53,057,49*78

$GPGSV,3,3,12,20,06,061,40,27,64,247,00,28,26,098,46,32,02,035,40*77

$PGRME,4.5,M,6.6,M,8.0,M*27

$GPGLL,4736.759,N,12219.740,W,235616,A*3A

$PGRMZ,450,f,3*1A

$PGRMM,WGS 84*06

$GPBOD,,T,,M,,*47

$GPRTE,1,1,c,0,GCJX2F*49

$GPWPL,4738.382,N,12219.774,W,GCJX2F*37

$GPRMC,235617,A,4736.759,N,12219.740,W,000.0,360.0,070712,019.5,E*6C

$GPRMB,A,,,,,,,,,,,,V*71

$GPGGA,235618,4736.759,N,12219.740,W,1,08,1.2,135.3,M,-18.4,M,,*73

$GPGSA,A,3,01,02,04,,,14,,17,20,,28,32,2.0,1.2,1.6*39

$GPGSV,3,1,12,01,03,030,40,02,18,179,43,04,41,146,47,09,60,278,32*7C

$GPGSV,3,2,12,12,27,291,00,14,05,337,34,15,10,236,00,17,53,057,50*72

$GPGSV,3,3,12,20,06,061,42,27,64,247,00,28,26,098,46,32,02,035,41*74

$PGRME,4.5,M,6.6,M,8.0,M*27

$GPGLL,4736.759,N,12219.740,W,235618,A*34

$PGRMZ,442,f,3*19

$PGRMM,WGS 84*06

$GPBOD,,T,,M,,*47

$GPRTE,1,1,c,0,GCJX2F*49

$GPWPL,4738.382,N,12219.774,W,GCJX2F*37

$GPRMC,235619,A,4736.758,N,12219.740,W,000.0,360.0,070712,019.5,E*63

$GPRMB,A,,,,,,,,,,,,V*71

$GPGGA,235620,4736.758,N,12219.740,W,1,08,1.2,133.7,M,-18.4,M,,*7B

$GPGSA,A,3,01,02,04,,,14,,17,20,,28,32,2.0,1.2,1.6*39

$GPGSV,3,1,12,01,03,030,41,02,18,179,42,04,41,146,47,09,60,278,36*78

$GPGSV,3,2,12,12,27,291,00,14,05,337,35,15,10,236,00,17,53,057,50*73

$GPGSV,3,3,12,20,06,061,43,27,64,247,00,28,26,098,47,32,02,035,43*76

$PGRME,4.5,M,6.6,M,8.0,M*27

$GPGLL,4736.758,N,12219.741,W,235620,A*3F

$PGRMZ,436,f,3*1A

$PGRMM,WGS 84*06

$GPBOD,,T,,M,,*47

$GPRTE,1,1,c,0,GCJX2F*49

$GPWPL,4738.382,N,12219.774,W,GCJX2F*37

$GPRMC,235621,A,4736.758,N,12219.741,W,000.0,360.0,070712,019.5,E*69

$GPRMB,A,,,,,,,,,,,,V*71

$GPGGA,235622,4736.758,N,12219.741,W,1,08,1.1,132.1,M,-18.4,M,,*7C

$GPGSA,A,3,01,02,04,,,14,,17,20,,28,32,1.9,1.1,1.6*30

$GPGSV,3,1,12,01,03,030,41,02,18,179,41,04,41,146,49,09,60,278,38*7B

$GPGSV,3,2,12,12,27,291,00,14,05,337,37,15,10,236,00,17,53,057,50*71

$GPGSV,3,3,12,20,06,061,43,27,64,247,00,28,26,098,47,32,02,035,45*70

$PGRME,4.5,M,6.6,M,8.0,M*27

$GPGLL,4736.758,N,12219.741,W,235622,A*3D

$PGRMZ,431,f,3*1D

$PGRMM,WGS 84*06

$GPBOD,,T,,M,,*47

$GPRTE,1,1,c,0,GCJX2F*49

$GPWPL,4738.382,N,12219.774,W,GCJX2F*37

$GPRMC,235623,A,4736.758,N,12219.741,W,000.0,360.0,070712,019.5,E*6B

$GPRMB,A,,,,,,,,,,,,V*71

$GPGGA,235624,4736.758,N,12219.741,W,1,08,1.1,130.7,M,-18.4,M,,*7E

$GPGSA,A,3,01,02,04,,,14,,17,20,,28,32,1.9,1.1,1.6*30

$GPGSV,3,1,12,01,03,030,42,02,18,179,40,04,41,146,50,09,60,278,38*71

$GPGSV,3,2,12,12,27,291,00,14,05,337,38,15,10,236,00,17,53,057,50*7E

$GPGSV,3,3,12,20,06,061,43,27,64,247,00,28,26,098,47,32,02,035,46*73

$PGRME,4.5,M,6.6,M,8.0,M*27

$GPGLL,4736.757,N,12219.741,W,235624,A*34

$PGRMZ,426,f,3*1B

$PGRMM,WGS 84*06

$GPBOD,,T,,M,,*47

$GPRTE,1,1,c,0,GCJX2F*49

$GPWPL,4738.382,N,12219.774,W,GCJX2F*37

$GPRMC,235625,A,4736.757,N,12219.742,W,000.0,360.0,070712,019.5,E*61

$GPRMB,A,,,,,,,,,,,,V*71

$GPGGA,235626,4736.757,N,12219.742,W,1,08,1.1,129.2,M,-18.4,M,,*7D

$GPGSA,A,3,01,02,04,,,14,,17,20,,28,32,1.9,1.1,1.6*30

$GPGSV,3,1,12,01,03,030,42,02,18,179,40,04,41,146,50,09,60,278,38*71

$GPGSV,3,2,12,12,27,291,00,14,05,337,38,15,10,236,00,17,53,057,51*7F

$GPGSV,3,3,12,20,06,061,43,27,64,247,00,28,26,098,47,32,02,035,46*73

$PGRME,4.5,M,6.6,M,8.0,M*27

$GPGLL,4736.757,N,12219.741,W,235626,A*36

$PGRMZ,422,f,3*1F

$PGRMM,WGS 84*06

$GPBOD,,T,,M,,*47

$GPRTE,1,1,c,0,GCJX2F*49

$GPWPL,4738.382,N,12219.774,W,GCJX2F*37

$GPRMC,235627,A,4736.757,N,12219.741,W,000.0,360.0,070712,019.5,E*60

$GPRMB,A,,,,,,,,,,,,V*71

$GPGGA,235628,4736.757,N,12219.741,W,1,08,1.1,127.8,M,-18.4,M,,*74

$GPGSA,A,3,01,02,04,,,14,,17,20,,28,32,1.9,1.1,1.6*30

$GPGSV,3,1,12,01,03,030,43,02,18,179,40,04,41,146,50,09,60,278,39*71

$GPGSV,3,2,12,12,27,291,00,14,05,337,38,15,10,236,00,17,53,057,51*7F

$GPGSV,3,3,12,20,06,061,43,27,64,247,00,28,26,098,46,32,02,035,47*73

